[
  {
    "Id": "1FE7EE5A-E9AF-4E86-9664-04A0165CE838",
    "Created": "2019-12-10T09:02:42Z",
    "Updated": null,
    "Latitude": 49.983731,
    "Longitude": 7.119855,
    "Name": "Stellplatz, Enkirch",
    "WaterFk": "AAE1F1D4-F79F-4C3A-83D5-DEBFFD711981",
    "Rating": 5,
    "Comment": null,
    "Street": "",
    "Postalcode": "56850",
    "City": "Enkirch",
    "Costs": 0.00,
    "Pro": null,
    "Contra": null
  },
  {
    "Id": "C6E16AAA-733B-4E1E-AB0E-19BB82669E0D",
    "Created": "2019-12-10T09:02:42Z",
    "Updated": null,
    "Latitude": 52.5534,
    "Longitude": 9.1123,
    "Name": "Fährstraße 7, Landesbergen",
    "WaterFk": "F965ECF6-2057-479D-A571-3F4E30C1E493",
    "Rating": -1,
    "Comment": null,
    "Street": "Fährstraße 7",
    "Postalcode": "31628",
    "City": "Landesbergen",
    "Costs": 0.00,
    "Pro": null,
    "Contra": null
  },
  {
    "Id": "ED16C4F7-4EBB-4BB7-9EB6-30B9DEFCE298",
    "Created": "2019-12-18T07:41:16Z",
    "Updated": null,
    "Latitude": 53.380933,
    "Longitude": 11.586434,
    "Name": "Hafen Neustadt-Glewe",
    "WaterFk": "85189101-4FD6-466A-B1D1-A598BD85C591",
    "Rating": 0,
    "Comment": null,
    "Street": "Alte Burg",
    "Postalcode": "19306",
    "City": "Neustadt-Glewe",
    "Costs": -1.00,
    "Pro": null,
    "Contra": null
  },
  {
    "Id": "E95987A3-4D7C-4EE8-9375-34075908E14E",
    "Created": "2019-12-18T09:40:48Z",
    "Updated": null,
    "Latitude": 53.509798,
    "Longitude": 12.648762,
    "Name": "Campingplatz Kamerun",
    "WaterFk": "5A32701A-3A43-40B3-ABFA-A35A6EE6E4C5",
    "Rating": 5,
    "Comment": null,
    "Street": "Zur Stillen Bucht",
    "Postalcode": "17192",
    "City": "Waren (Müritz)",
    "Costs": 7.00,
    "Pro": null,
    "Contra": null
  },
  {
    "Id": "C25CFFFB-BC8D-430E-B005-3FE5654967B0",
    "Created": "2019-12-10T09:02:42Z",
    "Updated": null,
    "Latitude": 51.359049,
    "Longitude": 6.950825,
    "Name": "Campingplatz Cammerzell",
    "WaterFk": "28E2B1B8-E353-4174-99A5-816229C68BD1",
    "Rating": -1,
    "Comment": null,
    "Street": "Werdener Str.",
    "Postalcode": "45219",
    "City": "Essen, Werde",
    "Costs": -1.00,
    "Pro": null,
    "Contra": null
  },
  {
    "Id": "600EEBCE-5DD4-4DE1-9068-401744A74C01",
    "Created": "2019-12-10T09:02:42Z",
    "Updated": null,
    "Latitude": 51.3366,
    "Longitude": 6.69,
    "Name": "Crefelder Yachtclub",
    "WaterFk": "A88EA916-5E6C-4D83-83A9-1D4FDFEF25EC",
    "Rating": -1,
    "Comment": null,
    "Street": "Bataverstraße",
    "Postalcode": "47809",
    "City": "Krefeld, Gellep-Stratum",
    "Costs": 10.00,
    "Pro": null,
    "Contra": null
  },
  {
    "Id": "AB45FAE2-593E-4CDC-B6F3-429360CDA53C",
    "Created": "2019-12-14T15:34:47Z",
    "Updated": null,
    "Latitude": 51.379347,
    "Longitude": 6.986615,
    "Name": "Campingplatz Deichklause",
    "WaterFk": "28E2B1B8-E353-4174-99A5-816229C68BD1",
    "Rating": 0,
    "Comment": null,
    "Street": "Laupendahler Landstraße 140",
    "Postalcode": "45239",
    "City": "Essen, Heidhausen",
    "Costs": -1.00,
    "Pro": null,
    "Contra": null
  },
  {
    "Id": "A2774742-EE4F-475E-A17C-4361DA060F12",
    "Created": "2019-12-16T21:21:58Z",
    "Updated": null,
    "Latitude": 51.675296,
    "Longitude": 7.753623,
    "Name": "Club Nautico Hamm e.V.",
    "WaterFk": "28CDF699-E727-447B-B3EE-9D10F8B2A5B2",
    "Rating": 0,
    "Comment": null,
    "Street": "Lünener Str. 201",
    "Postalcode": "59063",
    "City": "Hamm",
    "Costs": -1.00,
    "Pro": null,
    "Contra": null
  },
  {
    "Id": "2925B095-A81C-4370-B07A-4B3139818F13",
    "Created": "2019-12-18T09:27:36Z",
    "Updated": null,
    "Latitude": 52.782853,
    "Longitude": 9.387722,
    "Name": "Rethem (Aller)",
    "WaterFk": "FFA035BD-4C18-4A12-9BC7-5E66FC29E149",
    "Rating": 0,
    "Comment": null,
    "Street": "Parkstraße",
    "Postalcode": "27336",
    "City": "Rethem (Aller)",
    "Costs": 0.00,
    "Pro": null,
    "Contra": null
  },
  {
    "Id": "F0CAA49C-2D84-437A-A1F2-53F56A4E48FD",
    "Created": "2019-12-10T09:02:42Z",
    "Updated": null,
    "Latitude": 51.5262,
    "Longitude": 6.7,
    "Name": "Rheinfähre Walsum",
    "WaterFk": "A88EA916-5E6C-4D83-83A9-1D4FDFEF25EC",
    "Rating": -1,
    "Comment": null,
    "Street": "Rheinstraße",
    "Postalcode": "47179",
    "City": "Alt-Walsum",
    "Costs": 0.00,
    "Pro": null,
    "Contra": null
  },
  {
    "Id": "BFD617FD-29C5-4614-B976-65320C0F5ECC",
    "Created": "2019-12-10T09:02:42Z",
    "Updated": null,
    "Latitude": 51.3412,
    "Longitude": 6.6823,
    "Name": "Bootshaus Krekels",
    "WaterFk": "A88EA916-5E6C-4D83-83A9-1D4FDFEF25EC",
    "Rating": -1,
    "Comment": null,
    "Street": "Bataverstraße",
    "Postalcode": "47809",
    "City": "Krefeld, Gellep-Stratum",
    "Costs": -1.00,
    "Pro": null,
    "Contra": null
  },
  {
    "Id": "1A9821D9-736D-493A-AA82-65EDA0AD345C",
    "Created": "2019-12-18T09:09:31Z",
    "Updated": null,
    "Latitude": 53.178803,
    "Longitude": 11.299788,
    "Name": "Wasserwanderrastplatz Finds hier",
    "WaterFk": "85189101-4FD6-466A-B1D1-A598BD85C591",
    "Rating": 0,
    "Comment": null,
    "Street": "An der Elde 2",
    "Postalcode": "19294",
    "City": "Neu Kaliß",
    "Costs": -1.00,
    "Pro": null,
    "Contra": null
  },
  {
    "Id": "4EA84C51-A84C-4AEC-BD52-7C9FBA0C0E92",
    "Created": "2019-12-10T09:02:42Z",
    "Updated": null,
    "Latitude": 51.4474,
    "Longitude": 6.7243,
    "Name": "Pontwert",
    "WaterFk": "28E2B1B8-E353-4174-99A5-816229C68BD1",
    "Rating": -1,
    "Comment": null,
    "Street": "Am Bört",
    "Postalcode": "47059",
    "City": "Duisburg, Ruhrort",
    "Costs": 10.00,
    "Pro": null,
    "Contra": null
  },
  {
    "Id": "9B9B32E2-30F8-47CC-8E91-7E841446EF33",
    "Created": "2019-12-18T07:37:16Z",
    "Updated": null,
    "Latitude": 53.231534,
    "Longitude": 11.424667,
    "Name": "Bootshafen Eldena",
    "WaterFk": "85189101-4FD6-466A-B1D1-A598BD85C591",
    "Rating": 0,
    "Comment": null,
    "Street": "Am Bootshafen 1",
    "Postalcode": "19294",
    "City": "Eldena",
    "Costs": 6.00,
    "Pro": null,
    "Contra": null
  },
  {
    "Id": "82F778F0-A33F-476B-8EA7-856A5F7384AC",
    "Created": "2019-12-18T09:34:23Z",
    "Updated": null,
    "Latitude": 54.31555,
    "Longitude": 8.949964,
    "Name": "Tönning",
    "WaterFk": "E2B58EA1-969F-4F72-A2A6-429C7FDD8F37",
    "Rating": 0,
    "Comment": null,
    "Street": "Neustadt",
    "Postalcode": "25832",
    "City": "Tönning",
    "Costs": 0.00,
    "Pro": null,
    "Contra": null
  },
  {
    "Id": "2CD11660-8D64-4CA0-AD9F-8B558ABB7485",
    "Created": "2019-12-14T16:26:07Z",
    "Updated": null,
    "Latitude": 52.039483,
    "Longitude": 11.709626,
    "Name": "Campingplatz Magdeburg",
    "WaterFk": "DE3724FD-80A8-46F9-8B5B-DB378A84048C",
    "Rating": 0,
    "Comment": null,
    "Street": "Burgwall 2A-2BA",
    "Postalcode": "39218",
    "City": "Schönebeck (Elbe)",
    "Costs": -1.00,
    "Pro": null,
    "Contra": null
  },
  {
    "Id": "3EC52114-07DF-4E6F-83E7-8CB0C6A5E7D7",
    "Created": "2019-12-10T09:02:42Z",
    "Updated": null,
    "Latitude": 52.6936,
    "Longitude": 7.2885,
    "Name": "An der Bleiche, Meppen",
    "WaterFk": "ED0E2086-7425-4D2D-B372-D9B219D5638B",
    "Rating": -1,
    "Comment": null,
    "Street": "",
    "Postalcode": "49716",
    "City": "Meppen, Altstadt",
    "Costs": -1.00,
    "Pro": null,
    "Contra": null
  },
  {
    "Id": "907FFCE7-735D-4725-BE03-A7FCFE4CEF26",
    "Created": "2019-12-18T09:12:21Z",
    "Updated": null,
    "Latitude": 49.354541,
    "Longitude": 11.063741,
    "Name": "Nürnberg Katzwang",
    "WaterFk": "5F6F4FCF-E1CB-472E-8FD3-F331875E5153",
    "Rating": 0,
    "Comment": null,
    "Street": "Rosine-Speicher-Straße",
    "Postalcode": "90455",
    "City": "Nürnberg",
    "Costs": 0.00,
    "Pro": null,
    "Contra": null
  },
  {
    "Id": "3F2EB5BB-2795-42DD-8B67-B92BCE2FDADC",
    "Created": "2019-12-18T09:24:51Z",
    "Updated": null,
    "Latitude": 50.592889,
    "Longitude": 11.518853,
    "Name": "Hohenwarte Lothramühle",
    "WaterFk": "FACFC1F6-5887-4F51-A455-6EE85D41AFCD",
    "Rating": 0,
    "Comment": null,
    "Street": "Lothramühle",
    "Postalcode": "07338",
    "City": "Drognitz",
    "Costs": 0.00,
    "Pro": null,
    "Contra": null
  },
  {
    "Id": "E655AEE4-2000-483B-9717-BEF305668D41",
    "Created": "2019-12-16T22:04:05Z",
    "Updated": null,
    "Latitude": 53.2297,
    "Longitude": 8.4632,
    "Name": "Timpen , Elsfleth",
    "WaterFk": "0BC5BDB3-7E62-4C28-B4D3-FD4D3E7580C8",
    "Rating": 0,
    "Comment": null,
    "Street": "Timpen",
    "Postalcode": "26931",
    "City": "Elsfleth",
    "Costs": -1.00,
    "Pro": null,
    "Contra": null
  },
  {
    "Id": "18DB0434-5D5E-48E4-8C4C-C7B25B3ED45F",
    "Created": "2019-12-10T09:02:42Z",
    "Updated": null,
    "Latitude": 51.5238,
    "Longitude": 6.7067,
    "Name": "Alter Fähranleger",
    "WaterFk": "A88EA916-5E6C-4D83-83A9-1D4FDFEF25EC",
    "Rating": -1,
    "Comment": null,
    "Street": "Fährstraße",
    "Postalcode": "47179",
    "City": "Alt-Walsum",
    "Costs": 0.00,
    "Pro": null,
    "Contra": null
  },
  {
    "Id": "C704A5A4-D778-4D33-B0FA-CB97630B95D3",
    "Created": "2019-12-18T09:19:18Z",
    "Updated": null,
    "Latitude": 52.407689,
    "Longitude": 9.738647,
    "Name": "Hannover, Großer Kolonnenweg",
    "WaterFk": "09A03B1F-9ECE-4086-94D8-462F98985851",
    "Rating": 0,
    "Comment": null,
    "Street": "Großer Kolonnenweg",
    "Postalcode": "30163",
    "City": "Hannover, Vahrenwald",
    "Costs": 0.00,
    "Pro": null,
    "Contra": null
  },
  {
    "Id": "9F232734-8907-4A21-9B76-DE97FEB54A3D",
    "Created": "2019-12-10T09:02:42Z",
    "Updated": null,
    "Latitude": 51.4985,
    "Longitude": 6.7147,
    "Name": "Woltershof",
    "WaterFk": "A88EA916-5E6C-4D83-83A9-1D4FDFEF25EC",
    "Rating": -1,
    "Comment": null,
    "Street": "Woltershofer Straße 18",
    "Postalcode": "47199",
    "City": "Baerl",
    "Costs": 0.00,
    "Pro": null,
    "Contra": null
  },
  {
    "Id": "2B9F5416-B673-44FD-AC91-E1EFDAB414F3",
    "Created": "2019-12-14T15:27:56Z",
    "Updated": null,
    "Latitude": 51.360029,
    "Longitude": 6.935497,
    "Name": "Zur Alten Fähre, Kettwig",
    "WaterFk": "28E2B1B8-E353-4174-99A5-816229C68BD1",
    "Rating": 5,
    "Comment": null,
    "Street": "Zur Alten Fähre 31",
    "Postalcode": "45219",
    "City": "Essen, Kettwig",
    "Costs": 0.00,
    "Pro": null,
    "Contra": null
  },
  {
    "Id": "6564A149-DBD6-4BD1-BCB6-E5132634FD28",
    "Created": "2019-12-16T20:38:13Z",
    "Updated": null,
    "Latitude": 51.562317,
    "Longitude": 7.248101,
    "Name": "Herne - Gneisenaustraße 196",
    "WaterFk": "30081C46-BBE9-4AC7-894C-4852476D66E5",
    "Rating": 0,
    "Comment": null,
    "Street": "Gneisenaustraße 196",
    "Postalcode": "44628",
    "City": "Herne",
    "Costs": -1.00,
    "Pro": null,
    "Contra": null
  },
  {
    "Id": "F54068B8-F8D4-4E13-9EB2-F9E4B04037CF",
    "Created": "2019-12-17T08:00:16Z",
    "Updated": null,
    "Latitude": 52.610742,
    "Longitude": 12.002421,
    "Name": "Slipanlage Storkau",
    "WaterFk": "DE3724FD-80A8-46F9-8B5B-DB378A84048C",
    "Rating": 0,
    "Comment": null,
    "Street": "Am Över",
    "Postalcode": "39590",
    "City": "Storkau (Elbe)",
    "Costs": -1.00,
    "Pro": null,
    "Contra": null
  }
]
