[
  {
    "Id": "F77317D9-654F-4F51-925E-004C592049DA",
    "Created": "2019-12-10T09:02:42Z",
    "Updated": null,
    "Latitude": 53.530306059467996,
    "Longitude": 8.16072874214752,
    "Number": "9440030",
    "Shortname": "WHV NEUER VORHAFEN",
    "Longname": "WHV NEUER VORHAFEN",
    "Km": 4.053,
    "Agency": "WSA WILHELMSHAVEN",
    "WaterFk": "A237B616-E51B-4C6C-8FE2-EF485B0A3879"
  },
  {
    "Id": "A5830277-AF1D-4C64-BE72-00591F36216C",
    "Created": "2019-12-10T09:02:42Z",
    "Updated": null,
    "Latitude": 53.18164183257601,
    "Longitude": 13.146452716312501,
    "Number": "580070",
    "Shortname": "FÜRSTENBERG UP",
    "Longname": "FÜRSTENBERG UP",
    "Km": 60.661,
    "Agency": "WSA EBERSWALDE",
    "WaterFk": "89658AF6-0DF5-42BF-B550-5923FADC6F33"
  },
  {
    "Id": "46D8ED02-73FD-4958-8E2E-006C047D0576",
    "Created": "2019-12-10T09:02:42Z",
    "Updated": null,
    "Latitude": 49.00733168810783,
    "Longitude": 9.152409807968652,
    "Number": "23800460",
    "Shortname": "Besigheim SKA",
    "Longname": "BESIGHEIM SKA",
    "Km": 136.284,
    "Agency": "WSA NECKAR",
    "WaterFk": "AFC18147-790A-4AF0-BFFA-A54156C6BA7C"
  },
  {
    "Id": "AC6C4362-1FB1-4B7A-9406-016BED804804",
    "Created": "2019-12-10T09:02:42Z",
    "Updated": null,
    "Latitude": 51.564599683663246,
    "Longitude": 7.245823919191934,
    "Number": "27700150",
    "Shortname": "HERNE OW",
    "Longname": "HERNE OW",
    "Km": 37.35,
    "Agency": "WSA DUISBURG-MEIDERICH",
    "WaterFk": "30081C46-BBE9-4AC7-894C-4852476D66E5"
  },
  {
    "Id": "7FEC2F4F-6A2E-47EC-8F3C-016C581E4BBD",
    "Created": "2019-12-10T09:02:42Z",
    "Updated": null,
    "Latitude": 53.368564025269755,
    "Longitude": 10.501986716627133,
    "Number": "90100122",
    "Shortname": "ARTLENBURG-ELK",
    "Longname": "ARTLENBURG-ELK",
    "Km": 114.74,
    "Agency": "WSA UELZEN",
    "WaterFk": "F5D543C2-B584-40E4-AFA0-19435627E3FF"
  },
  {
    "Id": "522286E2-B2B3-4D0D-9A11-01B3EA418C76",
    "Created": "2019-12-10T09:02:42Z",
    "Updated": null,
    "Latitude": 52.76243123735362,
    "Longitude": 9.570880730005372,
    "Number": "48900102",
    "Shortname": "AHLDEN",
    "Longname": "AHLDEN",
    "Km": 57.92,
    "Agency": "WSA VERDEN",
    "WaterFk": "FFA035BD-4C18-4A12-9BC7-5E66FC29E149"
  },
  {
    "Id": "ACD63934-E40D-4650-A094-01CEA45432BE",
    "Created": "2019-12-10T09:02:42Z",
    "Updated": null,
    "Latitude": 51.193130668351344,
    "Longitude": 9.49819441574543,
    "Number": "42700202",
    "Shortname": "GREBENAU",
    "Longname": "GREBENAU",
    "Km": 55.49,
    "Agency": "WSA HANNOVERSCH MÜNDEN",
    "WaterFk": "966076CC-19E7-4922-921D-AAD15D5164B1"
  },
  {
    "Id": "9F12C405-35AC-4D90-9B7B-023BE355867E",
    "Created": "2019-12-10T09:02:42Z",
    "Updated": null,
    "Latitude": 48.57612011844346,
    "Longitude": 13.459076672254577,
    "Number": "10091008",
    "Shortname": "PASSAU DONAU",
    "Longname": "PASSAU DONAU",
    "Km": 2226.7,
    "Agency": "WSA REGENSBURG",
    "WaterFk": "D19708CA-AC42-4AD4-8D62-E85722F946F6"
  },
  {
    "Id": "26259E8F-7D2D-47E0-8851-0257542B63B3",
    "Created": "2019-12-10T09:02:42Z",
    "Updated": null,
    "Latitude": 53.67116721837194,
    "Longitude": 9.55875907937455,
    "Number": "5970018",
    "Shortname": "PINNAU-SPERRWERK BP",
    "Longname": "PINNAU-SPERRWERK BP",
    "Km": 18.1,
    "Agency": "WSA HAMBURG",
    "WaterFk": "8EB3C12D-029C-48F7-8995-D04F2D76F815"
  },
  {
    "Id": "D863CBC3-5E5E-4095-855C-026F0850DD58",
    "Created": "2019-12-10T09:02:42Z",
    "Updated": null,
    "Latitude": 53.9244589886425,
    "Longitude": 9.500604517047933,
    "Number": "5970042",
    "Shortname": "ITZEHOE HAFEN",
    "Longname": "ITZEHOE HAFEN",
    "Km": 24.88,
    "Agency": "WSA HAMBURG",
    "WaterFk": "87724DC3-A0E4-4FE3-AF64-0C174951D58E"
  },
  {
    "Id": "AAC49CF2-5D3F-4C69-9847-027FECAEEF30",
    "Created": "2019-12-10T09:02:42Z",
    "Updated": null,
    "Latitude": 53.1339706601111,
    "Longitude": 8.89440346181682,
    "Number": "4940010",
    "Shortname": "BORGFELD",
    "Longname": "BORGFELD",
    "Km": 0.265,
    "Agency": "WSA BREMEN",
    "WaterFk": "4F626D5C-3E9D-4FE4-839A-DF9EB0262BA0"
  },
  {
    "Id": "665BE0FE-5E38-43F6-8B04-02A93BDBEEB4",
    "Created": "2019-12-10T09:02:42Z",
    "Updated": null,
    "Latitude": 50.00286634024613,
    "Longitude": 8.030047855742515,
    "Number": "25100300",
    "Shortname": "Oestrich",
    "Longname": "OESTRICH",
    "Km": 518.08,
    "Agency": "WSA BINGEN",
    "WaterFk": "A88EA916-5E6C-4D83-83A9-1D4FDFEF25EC"
  },
  {
    "Id": "3FF99B92-4396-4FA7-AF73-02B9C015DCAD",
    "Created": "2019-12-10T09:02:42Z",
    "Updated": null,
    "Latitude": 53.94207507306487,
    "Longitude": 8.636197332307725,
    "Number": "9510132",
    "Shortname": "MITTELGRUND",
    "Longname": "MITTELGRUND",
    "Km": 733.7,
    "Agency": "WSA CUXHAVEN",
    "WaterFk": "1A191392-64F3-408E-87F0-B91E10545B57"
  },
  {
    "Id": "6B1B5C70-A23F-46DE-954D-02BDC5BF2ECC",
    "Created": "2019-12-10T09:02:42Z",
    "Updated": null,
    "Latitude": 52.24870941928099,
    "Longitude": 8.922040753864895,
    "Number": "47100100",
    "Shortname": "PORTA",
    "Longname": "PORTA",
    "Km": 198.36,
    "Agency": "WSA MINDEN",
    "WaterFk": "F965ECF6-2057-479D-A571-3F4E30C1E493"
  },
  {
    "Id": "5FEA1A12-326F-4919-AC9A-02F9FA11AB57",
    "Created": "2019-12-10T09:02:42Z",
    "Updated": null,
    "Latitude": 53.532826669663045,
    "Longitude": 9.776501861535763,
    "Number": "5950081",
    "Shortname": "ESTE INNERES SPERRWERK BP",
    "Longname": "ESTE INNERES SPERRWERK BP",
    "Km": 1.0,
    "Agency": "WSA HAMBURG",
    "WaterFk": "1836BB37-423E-444B-BF2E-DF21FED87FB1"
  },
  {
    "Id": "8C8AFB56-88EA-483A-A7D4-033C22F53497",
    "Created": "2019-12-10T09:02:42Z",
    "Updated": null,
    "Latitude": 54.29769193418942,
    "Longitude": 9.693628157618347,
    "Number": "5970074",
    "Shortname": "NOK RENDSBURG",
    "Longname": "NOK RENDSBURG",
    "Km": 63.5,
    "Agency": "WSA KIEL-HOLTENAU",
    "WaterFk": "E5C5D288-6A87-42EC-81C1-D58F1A6FCF1B"
  },
  {
    "Id": "C1F059DD-5063-468A-9DFA-0360FE0B030D",
    "Created": "2019-12-10T09:02:42Z",
    "Updated": null,
    "Latitude": 53.11979682274229,
    "Longitude": 8.712215483777378,
    "Number": "4910060",
    "Shortname": "OSLEBSHAUSEN",
    "Longname": "OSLEBSHAUSEN",
    "Km": 8.367,
    "Agency": "WSA BREMEN",
    "WaterFk": "F965ECF6-2057-479D-A571-3F4E30C1E493"
  },
  {
    "Id": "E7440532-8033-44D6-99B4-037A05DA0C54",
    "Created": "2019-12-10T09:02:42Z",
    "Updated": null,
    "Latitude": 52.35413194631881,
    "Longitude": 14.065136843229512,
    "Number": "582650",
    "Shortname": "FUERSTENWALDE UP",
    "Longname": "FUERSTENWALDE UP",
    "Km": 74.65,
    "Agency": "WSA BERLIN",
    "WaterFk": "512A905C-FBD5-4E1F-AD61-CABA44D8B0F9"
  },
  {
    "Id": "795CE865-3AC4-43B8-88D5-049A34E4359E",
    "Created": "2019-12-10T09:02:42Z",
    "Updated": null,
    "Latitude": 54.3736511770528,
    "Longitude": 9.083812848701692,
    "Number": "9520061",
    "Shortname": "FRIEDRICHSTADT TREENE",
    "Longname": "FRIEDRICHSTADT TREENE",
    "Km": 0.0,
    "Agency": "WSA TÖNNING",
    "WaterFk": "3A151FD0-81A0-4B01-A439-D2AA553B0B38"
  },
  {
    "Id": "F4F9F7FB-EEFF-46DC-9727-04D8AA56240A",
    "Created": "2019-12-10T09:02:42Z",
    "Updated": null,
    "Latitude": 53.89300772042554,
    "Longitude": 10.703065068850526,
    "Number": "9620090",
    "Shortname": "LÜBECK-BAUHOF",
    "Longname": "LÜBECK-BAUHOF",
    "Km": 7.79,
    "Agency": "WSA LÜBECK",
    "WaterFk": "E47BBF30-F087-49DC-A85D-F097D829A39A"
  },
  {
    "Id": "8177A148-5674-4B8F-8DED-050907F640F3",
    "Created": "2019-12-10T09:02:42Z",
    "Updated": null,
    "Latitude": 53.04191531444477,
    "Longitude": 7.317135433826929,
    "Number": "3770030",
    "Shortname": "HERBRUM HAFENDAMM",
    "Longname": "HERBRUM HAFENDAMM",
    "Km": 213.07,
    "Agency": "WSA MEPPEN",
    "WaterFk": "96423534-6B1A-4AF8-93D7-6F99AF296ECD"
  },
  {
    "Id": "18E6FA6E-2564-4057-8503-05213E49E57A",
    "Created": "2019-12-10T09:02:42Z",
    "Updated": null,
    "Latitude": 0.0,
    "Longitude": 0.0,
    "Number": "2190",
    "Shortname": "LOUNY",
    "Longname": "LOUNY",
    "Km": -61.4,
    "Agency": "POVODÍ LABE",
    "WaterFk": "E9F60B79-5FDE-4026-B6A2-FB27112135E7"
  },
  {
    "Id": "3DE8EA26-AB29-4E46-ADAD-06198BA2E0B7",
    "Created": "2019-12-10T09:02:42Z",
    "Updated": null,
    "Latitude": 53.39870390434762,
    "Longitude": 10.18539294274835,
    "Number": "5930090",
    "Shortname": "ZOLLENSPIEKER",
    "Longname": "ZOLLENSPIEKER",
    "Km": 598.2,
    "Agency": "WSA LAUENBURG",
    "WaterFk": "DE3724FD-80A8-46F9-8B5B-DB378A84048C"
  },
  {
    "Id": "23721DFD-9B89-4B69-AF80-063229917F27",
    "Created": "2019-12-10T09:02:42Z",
    "Updated": null,
    "Latitude": 51.40349164753268,
    "Longitude": 9.632042475708742,
    "Number": "42900201",
    "Shortname": "BONAFORTH",
    "Longname": "BONAFORTH",
    "Km": 3.61,
    "Agency": "WSA HANNOVERSCH MÜNDEN",
    "WaterFk": "966076CC-19E7-4922-921D-AAD15D5164B1"
  },
  {
    "Id": "C0EC139B-13B4-4F86-BEE3-06665AD81A40",
    "Created": "2019-12-10T09:02:42Z",
    "Updated": null,
    "Latitude": 54.178893927371895,
    "Longitude": 7.8899042173470155,
    "Number": "9510070",
    "Shortname": "HELGOLAND BINNENHAFEN",
    "Longname": "HELGOLAND BINNENHAFEN",
    "Km": 0.0,
    "Agency": "WSA TÖNNING",
    "WaterFk": "1A191392-64F3-408E-87F0-B91E10545B57"
  },
  {
    "Id": "AB13C115-6924-4D88-822C-0704B8DF4767",
    "Created": "2019-12-10T09:02:42Z",
    "Updated": null,
    "Latitude": 53.272548313078,
    "Longitude": 12.800246962104048,
    "Number": "581000",
    "Shortname": "MIROW OP",
    "Longname": "MIROW OP",
    "Km": 23.092,
    "Agency": "WSA EBERSWALDE",
    "WaterFk": "8C8C8518-D59B-4512-B75C-36A67F95C260"
  },
  {
    "Id": "2203FCE7-9D1E-4586-84AB-0797468863A1",
    "Created": "2019-12-10T09:02:42Z",
    "Updated": null,
    "Latitude": 51.91711420240949,
    "Longitude": 11.87400853914681,
    "Number": "570950",
    "Shortname": "GROSS ROSENBURG",
    "Longname": "GROSS ROSENBURG",
    "Km": 9.64,
    "Agency": "WSA MAGDEBURG",
    "WaterFk": "B61E88E8-9C3E-4FFA-8265-3C1053DF076E"
  },
  {
    "Id": "36F80081-9353-4AB1-8E61-07A5509F1CEA",
    "Created": "2019-12-10T09:02:42Z",
    "Updated": null,
    "Latitude": 52.40916386843749,
    "Longitude": 11.27265033711792,
    "Number": "3101012",
    "Shortname": "VELSDORF",
    "Longname": "VELSDORF",
    "Km": 283.1,
    "Agency": "WSA MAGDEBURG",
    "WaterFk": "09A03B1F-9ECE-4086-94D8-462F98985851"
  },
  {
    "Id": "60B6ECB0-4ED5-4B8A-B875-07AE33A92B07",
    "Created": "2019-12-10T09:02:42Z",
    "Updated": null,
    "Latitude": 53.05136215770028,
    "Longitude": 13.292737415762769,
    "Number": "581390",
    "Shortname": "MARIENTHAL OP",
    "Longname": "MARIENTHAL OP",
    "Km": 0.143,
    "Agency": "WSA EBERSWALDE",
    "WaterFk": "D30E6E98-5A25-40AF-A625-BE880EF69A9B"
  },
  {
    "Id": "3BEC53CA-444E-4014-A7B0-07B3591E954B",
    "Created": "2019-12-10T09:02:42Z",
    "Updated": null,
    "Latitude": 49.7321894338546,
    "Longitude": 6.626853440931648,
    "Number": "26500100",
    "Shortname": "Trier UP",
    "Longname": "TRIER UP",
    "Km": 195.3,
    "Agency": "WSA TRIER",
    "WaterFk": "AAE1F1D4-F79F-4C3A-83D5-DEBFFD711981"
  },
  {
    "Id": "FF02F181-491C-4925-AD13-07EDD2DDB3F1",
    "Created": "2019-12-10T09:02:42Z",
    "Updated": null,
    "Latitude": 49.88205058255768,
    "Longitude": 10.906536913690166,
    "Number": "24300042",
    "Shortname": "BAMBERG",
    "Longname": "BAMBERG",
    "Km": 7.31,
    "Agency": "WSA NÜRNBERG",
    "WaterFk": "5F6F4FCF-E1CB-472E-8FD3-F331875E5153"
  },
  {
    "Id": "308F5979-4AB8-48AB-B618-081AA285559E",
    "Created": "2019-12-10T09:02:42Z",
    "Updated": null,
    "Latitude": 53.138198127512204,
    "Longitude": 13.239349671437513,
    "Number": "580080",
    "Shortname": "BREDEREICHE OP",
    "Longname": "BREDEREICHE OP",
    "Km": 47.992,
    "Agency": "WSA EBERSWALDE",
    "WaterFk": "89658AF6-0DF5-42BF-B550-5923FADC6F33"
  },
  {
    "Id": "5B94E4B9-CC96-433F-ABF7-08287137EC54",
    "Created": "2019-12-10T09:02:42Z",
    "Updated": null,
    "Latitude": 53.73777573872999,
    "Longitude": 9.348016526795693,
    "Number": "126009",
    "Shortname": "DORNBUSCH BRÜCKE",
    "Longname": "DORNBUSCH BRÜCKE",
    "Km": 3.7,
    "Agency": "WSA HAMBURG",
    "WaterFk": "C656DEBB-F595-41AF-8234-48F3C4C19A51"
  },
  {
    "Id": "492F85B8-E5C6-439E-8E14-08CA78F10DCE",
    "Created": "2019-12-10T09:02:42Z",
    "Updated": null,
    "Latitude": 54.52449361393186,
    "Longitude": 13.093555157353734,
    "Number": "9670046",
    "Shortname": "NEUENDORF HAFEN",
    "Longname": "NEUENDORF HAFEN",
    "Km": 0.0,
    "Agency": "WSA STRALSUND",
    "WaterFk": "0C5ECB8F-5C72-4E55-82C5-CFF6A068F5A4"
  },
  {
    "Id": "88E972E1-88A0-4EB9-847C-0925E5999A46",
    "Created": "2019-12-10T09:02:42Z",
    "Updated": null,
    "Latitude": 49.25527428168666,
    "Longitude": 8.428827207940454,
    "Number": "23700500",
    "Shortname": "Philippsburg",
    "Longname": "PHILIPPSBURG",
    "Km": 389.33,
    "Agency": "WSA MANNHEIM",
    "WaterFk": "A88EA916-5E6C-4D83-83A9-1D4FDFEF25EC"
  },
  {
    "Id": "A653EB04-DE2E-47F7-8E2C-09277CFE95AE",
    "Created": "2019-12-10T09:02:42Z",
    "Updated": null,
    "Latitude": 53.71614057991539,
    "Longitude": 9.526336706347767,
    "Number": "5970024",
    "Shortname": "KRÜCKAU-SPERRWERK AP",
    "Longname": "KRÜCKAU-SPERRWERK AP",
    "Km": 663.3,
    "Agency": "WSA HAMBURG",
    "WaterFk": "DE3724FD-80A8-46F9-8B5B-DB378A84048C"
  },
  {
    "Id": "6E3EA719-48B1-408A-BC55-0986C1E94CD5",
    "Created": "2019-12-10T09:02:42Z",
    "Updated": null,
    "Latitude": 53.1403563002025,
    "Longitude": 11.242932640396107,
    "Number": "5910025",
    "Shortname": "DÖMITZ",
    "Longname": "DÖMITZ",
    "Km": 504.725,
    "Agency": "WSA LAUENBURG",
    "WaterFk": "DE3724FD-80A8-46F9-8B5B-DB378A84048C"
  },
  {
    "Id": "F112A50A-D94A-49D3-A140-0A0402BAF0D3",
    "Created": "2019-12-10T09:02:42Z",
    "Updated": null,
    "Latitude": 52.738530749126895,
    "Longitude": 12.221626379457208,
    "Number": "580747",
    "Shortname": "GÜLPE OP",
    "Longname": "GÜLPE OP",
    "Km": 127.644,
    "Agency": "WSA BRANDENBURG",
    "WaterFk": "F68A87EB-4812-4075-A29C-82831687C30F"
  },
  {
    "Id": "A8604E8F-9330-4431-8CF6-0A68FC793C82",
    "Created": "2019-12-10T09:02:42Z",
    "Updated": null,
    "Latitude": 52.416830457290295,
    "Longitude": 10.647378490339182,
    "Number": "31010092",
    "Shortname": "SUELFELD OW",
    "Longname": "SUELFELD OW",
    "Km": 235.7,
    "Agency": "WSA UELZEN",
    "WaterFk": "09A03B1F-9ECE-4086-94D8-462F98985851"
  },
  {
    "Id": "956CE5FF-1FC8-461E-AB2E-0AC70758BB46",
    "Created": "2019-12-10T09:02:42Z",
    "Updated": null,
    "Latitude": 53.259841797981515,
    "Longitude": 11.480125603886963,
    "Number": "596350",
    "Shortname": "GUERITZ OP",
    "Longname": "GUERITZ OP",
    "Km": 22.78,
    "Agency": "WSA LAUENBURG",
    "WaterFk": "E54E5839-5FC8-4494-9360-8989442A2242"
  },
  {
    "Id": "4DE8A51C-4C6A-4334-92DD-0B1CBB8E0573",
    "Created": "2019-12-10T09:02:42Z",
    "Updated": null,
    "Latitude": 52.60744455099087,
    "Longitude": 12.321016014173523,
    "Number": "580650",
    "Shortname": "RATHENOW UP",
    "Longname": "RATHENOW UP",
    "Km": 103.94,
    "Agency": "WSA BRANDENBURG",
    "WaterFk": "F68A87EB-4812-4075-A29C-82831687C30F"
  },
  {
    "Id": "24C6A014-864B-4D53-BD05-0B49106F5412",
    "Created": "2019-12-10T09:02:42Z",
    "Updated": null,
    "Latitude": 53.92767943205299,
    "Longitude": 9.632318956087092,
    "Number": "5970038",
    "Shortname": "BREITENBERG",
    "Longname": "BREITENBERG",
    "Km": 11.9,
    "Agency": "WSA HAMBURG",
    "WaterFk": "87724DC3-A0E4-4FE3-AF64-0C174951D58E"
  },
  {
    "Id": "C42FF4C7-F4C6-4568-8B5C-0B556BD55926",
    "Created": "2019-12-10T09:02:42Z",
    "Updated": null,
    "Latitude": 53.058582660435356,
    "Longitude": 8.869126735013456,
    "Number": "4910030",
    "Shortname": "WESERWEHR OW",
    "Longname": "WESERWEHR OW",
    "Km": 361.8,
    "Agency": "WSA BREMEN",
    "WaterFk": "F965ECF6-2057-479D-A571-3F4E30C1E493"
  },
  {
    "Id": "E1217D07-91F8-4019-B3A2-0C0D69316AB8",
    "Created": "2019-12-10T09:02:42Z",
    "Updated": null,
    "Latitude": 53.9572369939967,
    "Longitude": 9.262888663124173,
    "Number": "2130154610",
    "Shortname": "GW-PWDRFP 02",
    "Longname": "GW-PWDRFP 02",
    "Km": 11.94,
    "Agency": "WSA BRUNSBÜTTEL",
    "WaterFk": "C23322C5-AD2A-4050-9E64-E377341617A9"
  },
  {
    "Id": "F0197BCF-6846-4C0A-9659-0C2626A9BCF0",
    "Created": "2019-12-10T09:02:42Z",
    "Updated": null,
    "Latitude": 53.96703949415204,
    "Longitude": 8.462560576653868,
    "Number": "9510060",
    "Shortname": "BAKE C - SCHARHÖRN",
    "Longname": "BAKE C - SCHARHÖRN",
    "Km": 745.0,
    "Agency": "WSA CUXHAVEN",
    "WaterFk": "1A191392-64F3-408E-87F0-B91E10545B57"
  },
  {
    "Id": "69FC0432-E9DC-400C-8C21-0C26E85DF884",
    "Created": "2019-12-10T09:02:42Z",
    "Updated": null,
    "Latitude": 53.968640829454415,
    "Longitude": 9.27218333697518,
    "Number": "6130154610",
    "Shortname": "GW-PWDRFP 06",
    "Longname": "GW-PWDRFP 06",
    "Km": 13.31,
    "Agency": "WSA BRUNSBÜTTEL",
    "WaterFk": "C23322C5-AD2A-4050-9E64-E377341617A9"
  },
  {
    "Id": "8BA772ED-E45B-4BE8-B91D-0C6C92DE59E4",
    "Created": "2019-12-10T09:02:42Z",
    "Updated": null,
    "Latitude": 53.847926808320594,
    "Longitude": 12.888041935015819,
    "Number": "9660009",
    "Shortname": "AALBUDE",
    "Longname": "AALBUDE",
    "Km": 14.947,
    "Agency": "WSA STRALSUND",
    "WaterFk": "FB88F5B1-2248-45CA-BD47-1A2213B82FD3"
  },
  {
    "Id": "5918B484-597F-4A1C-8262-0D0CBBB7986D",
    "Created": "2019-12-10T09:02:42Z",
    "Updated": null,
    "Latitude": 53.122253182102575,
    "Longitude": 13.49475244715308,
    "Number": "581210",
    "Shortname": "TEMPLIN UP",
    "Longname": "TEMPLIN UP",
    "Km": 13.291,
    "Agency": "WSA EBERSWALDE",
    "WaterFk": "177835D3-9D2A-42EF-88FD-A572BA3DF9CA"
  },
  {
    "Id": "3C7CFB10-C866-404B-B11C-0D79986F865A",
    "Created": "2019-12-10T09:02:42Z",
    "Updated": null,
    "Latitude": 49.933799962999025,
    "Longitude": 9.129075053362595,
    "Number": "24700302",
    "Shortname": "OBERNAU",
    "Longname": "OBERNAU",
    "Km": 92.385,
    "Agency": "WSA ASCHAFFENBURG",
    "WaterFk": "2F14FF08-2C57-4DA3-9C69-2978EFD4AC6E"
  },
  {
    "Id": "D488C5CC-4DE9-4631-8CE1-0DB0E700B546",
    "Created": "2019-12-10T09:02:42Z",
    "Updated": null,
    "Latitude": 53.54568502657209,
    "Longitude": 9.969996726842329,
    "Number": "5952050",
    "Shortname": "HAMBURG-ST.PAULI",
    "Longname": "HAMBURG ST. PAULI",
    "Km": 623.1,
    "Agency": "HAMBURG PORT AUTHORITY",
    "WaterFk": "DE3724FD-80A8-46F9-8B5B-DB378A84048C"
  },
  {
    "Id": "721313E7-935A-4BB8-8C6D-0E014211B2EC",
    "Created": "2019-12-10T09:02:42Z",
    "Updated": null,
    "Latitude": 54.36846849174286,
    "Longitude": 9.094603006864787,
    "Number": "9520060",
    "Shortname": "FRIEDRICHSTADT STRASSENBRÜCKE",
    "Longname": "FRIEDRICHSTADT STRASSENBRÜCKE",
    "Km": 83.14,
    "Agency": "WSA TÖNNING",
    "WaterFk": "E2B58EA1-969F-4F72-A2A6-429C7FDD8F37"
  },
  {
    "Id": "8C20B4DC-1540-4B14-8C88-0E1D87DE22C4",
    "Created": "2019-12-10T09:02:42Z",
    "Updated": null,
    "Latitude": 53.7547049182697,
    "Longitude": 9.391186976193614,
    "Number": "5970031",
    "Shortname": "KRAUTSAND REEDE",
    "Longname": "KRAUTSAND REEDE",
    "Km": 671.787,
    "Agency": "WSA HAMBURG",
    "WaterFk": "DE3724FD-80A8-46F9-8B5B-DB378A84048C"
  },
  {
    "Id": "B26BFC88-EB8A-45B9-9DD0-0E41949A2648",
    "Created": "2019-12-10T09:02:42Z",
    "Updated": null,
    "Latitude": 53.0730971373515,
    "Longitude": 8.803635790999683,
    "Number": "4910050",
    "Shortname": "GROSSE WESERBRÜCKE",
    "Longname": "GROSSE WESERBRÜCKE",
    "Km": 0.04,
    "Agency": "WSA BREMEN",
    "WaterFk": "F965ECF6-2057-479D-A571-3F4E30C1E493"
  },
  {
    "Id": "1EDC5FA4-88AF-47F5-95A4-0E77A06FE8B1",
    "Created": "2019-12-10T09:02:42Z",
    "Updated": null,
    "Latitude": 51.856888312230645,
    "Longitude": 12.223276831448223,
    "Number": "502000",
    "Shortname": "DESSAU",
    "Longname": "DESSAU",
    "Km": 261.16,
    "Agency": "WSA DRESDEN",
    "WaterFk": "DE3724FD-80A8-46F9-8B5B-DB378A84048C"
  },
  {
    "Id": "B09F2243-60F0-469A-8F3B-0EA6ABC83267",
    "Created": "2019-12-10T09:02:42Z",
    "Updated": null,
    "Latitude": 54.66438387741342,
    "Longitude": 9.937938134263064,
    "Number": "9610035",
    "Shortname": "KAPPELN",
    "Longname": "KAPPELN",
    "Km": 507.3,
    "Agency": "WSA LÜBECK",
    "WaterFk": "0C5ECB8F-5C72-4E55-82C5-CFF6A068F5A4"
  },
  {
    "Id": "30739FF3-9D71-4E38-991C-0F7A2F54ED2D",
    "Created": "2019-12-10T09:02:42Z",
    "Updated": null,
    "Latitude": 53.17204427845669,
    "Longitude": 11.286381754482113,
    "Number": "596430",
    "Shortname": "NEU KALLISS OP",
    "Longname": "NEU KALLISS OP",
    "Km": 4.97,
    "Agency": "WSA LAUENBURG",
    "WaterFk": "E54E5839-5FC8-4494-9360-8989442A2242"
  },
  {
    "Id": "44BB934C-4250-4E1B-AD70-0FBD8BB3EADD",
    "Created": "2019-12-10T09:02:42Z",
    "Updated": null,
    "Latitude": 53.206332490898966,
    "Longitude": 14.394264747931327,
    "Number": "603510",
    "Shortname": "GARTZ",
    "Longname": "GARTZ",
    "Km": 8.038,
    "Agency": "WSA EBERSWALDE",
    "WaterFk": "744E0BC7-0946-41EA-BC82-D0CEA5CBF4C1"
  },
  {
    "Id": "4EEC6B25-6B02-4448-B5DB-10843C8D6175",
    "Created": "2019-12-10T09:02:42Z",
    "Updated": null,
    "Latitude": 52.849041883415836,
    "Longitude": 13.944325796325481,
    "Number": "692090",
    "Shortname": "NIEDERFINOW SHW UP",
    "Longname": "NIEDERFINOW SHW UP",
    "Km": 77.972,
    "Agency": "WSA EBERSWALDE",
    "WaterFk": "FB9B6F64-A7A6-4744-A12F-5BDF31E6F0AF"
  },
  {
    "Id": "F7A639A4-B824-445C-B158-108EBD70CC9A",
    "Created": "2019-12-10T09:02:42Z",
    "Updated": null,
    "Latitude": 52.8647370158204,
    "Longitude": 14.141124665027109,
    "Number": "603080",
    "Shortname": "HOHENSAATEN-FINOW",
    "Longname": "HOHENSAATEN-FINOW",
    "Km": 664.951,
    "Agency": "WSA EBERSWALDE",
    "WaterFk": "6CE9C61C-AB43-4084-BD62-9AD5E2AB6CF9"
  },
  {
    "Id": "A37A9AA3-45E9-4D90-9DF6-109F3A28A5AF",
    "Created": "2019-12-10T09:02:42Z",
    "Updated": null,
    "Latitude": 50.00399505526266,
    "Longitude": 8.27531853709192,
    "Number": "25100100",
    "Shortname": "Mainz",
    "Longname": "MAINZ",
    "Km": 498.27,
    "Agency": "WSA BINGEN",
    "WaterFk": "A88EA916-5E6C-4D83-83A9-1D4FDFEF25EC"
  },
  {
    "Id": "AC507F42-1593-49EA-865F-10B2523617C7",
    "Created": "2019-12-10T09:02:42Z",
    "Updated": null,
    "Latitude": 53.05028175067159,
    "Longitude": 11.349502776620287,
    "Number": "5910020",
    "Shortname": "GORLEBEN",
    "Longname": "GORLEBEN",
    "Km": 492.95,
    "Agency": "WSA MAGDEBURG",
    "WaterFk": "DE3724FD-80A8-46F9-8B5B-DB378A84048C"
  },
  {
    "Id": "104FDC24-1DC6-4CB7-B44F-10BD02E13F40",
    "Created": "2019-12-10T09:02:42Z",
    "Updated": null,
    "Latitude": 54.01351911664601,
    "Longitude": 8.314601507551739,
    "Number": "9510066",
    "Shortname": "BAKE Z",
    "Longname": "BAKE Z",
    "Km": 756.2,
    "Agency": "WSA CUXHAVEN",
    "WaterFk": "1A191392-64F3-408E-87F0-B91E10545B57"
  },
  {
    "Id": "C80A4F21-528C-4771-98D7-10CD591699A4",
    "Created": "2019-12-10T09:02:42Z",
    "Updated": null,
    "Latitude": 53.079992970560305,
    "Longitude": 11.455945648065999,
    "Number": "503120",
    "Shortname": "LENZEN",
    "Longname": "LENZEN",
    "Km": 484.7,
    "Agency": "WSA MAGDEBURG",
    "WaterFk": "DE3724FD-80A8-46F9-8B5B-DB378A84048C"
  },
  {
    "Id": "3ADF88FD-FD7A-41D0-84F5-1143C98A6564",
    "Created": "2019-12-10T09:02:42Z",
    "Updated": null,
    "Latitude": 52.249748325832506,
    "Longitude": 11.73755447886122,
    "Number": "502240",
    "Shortname": "NIEGRIPP AP",
    "Longname": "NIEGRIPP AP",
    "Km": 343.6,
    "Agency": "WSA MAGDEBURG",
    "WaterFk": "DE3724FD-80A8-46F9-8B5B-DB378A84048C"
  },
  {
    "Id": "E607A4B6-85CC-4F12-A53D-116CB6EEF4F5",
    "Created": "2019-12-10T09:02:42Z",
    "Updated": null,
    "Latitude": 52.54185549253914,
    "Longitude": 13.209041700232952,
    "Number": "580300",
    "Shortname": "BERLIN-SPANDAU OP",
    "Longname": "BERLIN-SPANDAU OP",
    "Km": 0.76,
    "Agency": "WSA BERLIN",
    "WaterFk": "FB9B6F64-A7A6-4744-A12F-5BDF31E6F0AF"
  },
  {
    "Id": "E6D68AB7-5C27-4F25-896F-11DBF04056CD",
    "Created": "2019-12-10T09:02:42Z",
    "Updated": null,
    "Latitude": 48.637199594501034,
    "Longitude": 13.182358222269338,
    "Number": "10089006",
    "Shortname": "VILSHOFEN",
    "Longname": "VILSHOFEN",
    "Km": 2249.47,
    "Agency": "WSA REGENSBURG",
    "WaterFk": "D19708CA-AC42-4AD4-8D62-E85722F946F6"
  },
  {
    "Id": "16508B11-4349-48F7-BE51-1227B7888585",
    "Created": "2019-12-10T09:02:42Z",
    "Updated": null,
    "Latitude": 53.07241788394306,
    "Longitude": 7.286979017850521,
    "Number": "3770040",
    "Shortname": "RHEDE",
    "Longname": "RHEDE",
    "Km": 217.86,
    "Agency": "WSA MEPPEN",
    "WaterFk": "96423534-6B1A-4AF8-93D7-6F99AF296ECD"
  },
  {
    "Id": "ED260406-BDD6-42EF-BF2A-1246EEA392F9",
    "Created": "2019-12-10T09:02:42Z",
    "Updated": null,
    "Latitude": 51.9871250324716,
    "Longitude": 7.660129217739214,
    "Number": "27800030",
    "Shortname": "MÜNSTER UW",
    "Longname": "MÜNSTER UW",
    "Km": 72.49,
    "Agency": "WSA RHEINE",
    "WaterFk": "96423534-6B1A-4AF8-93D7-6F99AF296ECD"
  },
  {
    "Id": "D2F5F610-C55D-427E-9A78-12731C5CCE5D",
    "Created": "2019-12-10T09:02:42Z",
    "Updated": null,
    "Latitude": 52.855340332989165,
    "Longitude": 13.657393675432662,
    "Number": "31480004",
    "Shortname": "DGW2",
    "Longname": "DGW2",
    "Km": 58.2,
    "Agency": "WSA EBERSWALDE",
    "WaterFk": "FB9B6F64-A7A6-4744-A12F-5BDF31E6F0AF"
  },
  {
    "Id": "BC20D819-1782-4588-885D-129F21A27CF9",
    "Created": "2019-12-10T09:02:42Z",
    "Updated": null,
    "Latitude": 52.35467740765629,
    "Longitude": 9.869744389448229,
    "Number": "31010061",
    "Shortname": "ANDERTEN OW",
    "Longname": "ANDERTEN OW",
    "Km": 174.96,
    "Agency": "WSA BRAUNSCHWEIG",
    "WaterFk": "09A03B1F-9ECE-4086-94D8-462F98985851"
  },
  {
    "Id": "70039212-C8A8-43FC-82A5-150D95831772",
    "Created": "2019-12-10T09:02:42Z",
    "Updated": null,
    "Latitude": 53.776237907291524,
    "Longitude": 7.867938460727221,
    "Number": "9420040",
    "Shortname": "WANGEROOGE WEST ",
    "Longname": "WANGEROOGE WEST ",
    "Km": 43.208,
    "Agency": "WSA WILHELMSHAVEN",
    "WaterFk": "A237B616-E51B-4C6C-8FE2-EF485B0A3879"
  },
  {
    "Id": "DFDF753B-75BD-46F0-8CDE-15545BE9BFBA",
    "Created": "2019-12-10T09:02:42Z",
    "Updated": null,
    "Latitude": 49.563031581358466,
    "Longitude": 6.372088777819485,
    "Number": "26100130",
    "Shortname": "Stadtbredimus UP",
    "Longname": "STADTBREDIMUS UP",
    "Km": 229.44,
    "Agency": "WSA TRIER",
    "WaterFk": "AAE1F1D4-F79F-4C3A-83D5-DEBFFD711981"
  },
  {
    "Id": "EB24B5A3-5102-429B-93A9-15656FEE850F",
    "Created": "2019-12-10T09:02:42Z",
    "Updated": null,
    "Latitude": 52.38758640700614,
    "Longitude": 9.315912784359138,
    "Number": "31010052",
    "Shortname": "RODENBERGER AUE-WEST",
    "Longname": "RODENBERGER AUE-WEST",
    "Km": 132.68,
    "Agency": "WSA BRAUNSCHWEIG",
    "WaterFk": "09A03B1F-9ECE-4086-94D8-462F98985851"
  },
  {
    "Id": "4B386A6A-996E-4A4A-A440-15D6B40226D4",
    "Created": "2019-12-10T09:02:42Z",
    "Updated": null,
    "Latitude": 50.575037651225514,
    "Longitude": 8.64860169166119,
    "Number": "25800100",
    "Shortname": "Gießen Klärwerk",
    "Longname": "GIESSEN KLÄRWERK",
    "Km": -3.21,
    "Agency": "WSA KOBLENZ",
    "WaterFk": "FD74AE1F-78C3-4EFA-8449-6ECC1FB482AB"
  },
  {
    "Id": "16258271-EC03-4542-873C-1642C8B654C9",
    "Created": "2019-12-10T09:02:42Z",
    "Updated": null,
    "Latitude": 52.57759504433102,
    "Longitude": 14.630300056553716,
    "Number": "603040",
    "Shortname": "KIETZ",
    "Longname": "KIETZ",
    "Km": 614.793,
    "Agency": "WSA EBERSWALDE",
    "WaterFk": "6CE9C61C-AB43-4084-BD62-9AD5E2AB6CF9"
  },
  {
    "Id": "C62AA674-DB07-4251-A50B-1676C11A9A25",
    "Created": "2019-12-10T09:02:42Z",
    "Updated": null,
    "Latitude": 52.6665475369242,
    "Longitude": 12.254617518803094,
    "Number": "580710",
    "Shortname": "GRÜTZ UP",
    "Longname": "GRÜTZ UP",
    "Km": 117.238,
    "Agency": "WSA BRANDENBURG",
    "WaterFk": "F68A87EB-4812-4075-A29C-82831687C30F"
  },
  {
    "Id": "2FF6379D-D168-4022-8DA0-16846D45EF9B",
    "Created": "2019-12-10T09:02:42Z",
    "Updated": null,
    "Latitude": 50.232913717702615,
    "Longitude": 7.592132313690253,
    "Number": "25700500",
    "Shortname": "Boppard",
    "Longname": "BOPPARD",
    "Km": 570.45,
    "Agency": "WSA BINGEN",
    "WaterFk": "A88EA916-5E6C-4D83-83A9-1D4FDFEF25EC"
  },
  {
    "Id": "541C508A-00BF-4A9D-BD47-17FDA98B349D",
    "Created": "2019-12-10T09:02:42Z",
    "Updated": null,
    "Latitude": 53.416023168862274,
    "Longitude": 11.930331663383237,
    "Number": "596160",
    "Shortname": "NEUBURG OP",
    "Longname": "NEUBURG OP",
    "Km": 83.36,
    "Agency": "WSA LAUENBURG",
    "WaterFk": "E54E5839-5FC8-4494-9360-8989442A2242"
  },
  {
    "Id": "A73A9CB4-5BC2-4D42-B7CD-191D5E1EE307",
    "Created": "2019-12-10T09:02:42Z",
    "Updated": null,
    "Latitude": 48.92880484557546,
    "Longitude": 9.239640072220388,
    "Number": "23800320",
    "Shortname": "Marbach Wehr UP",
    "Longname": "MARBACH WEHR UP",
    "Km": 158.931,
    "Agency": "WSA NECKAR",
    "WaterFk": "AFC18147-790A-4AF0-BFFA-A54156C6BA7C"
  },
  {
    "Id": "44F7E955-C97D-45C8-9ED7-19406806FB4C",
    "Created": "2019-12-10T09:02:42Z",
    "Updated": null,
    "Latitude": 53.42650078096063,
    "Longitude": 10.374502723680603,
    "Number": "5930060",
    "Shortname": "GEESTHACHT",
    "Longname": "GEESTHACHT",
    "Km": 583.36,
    "Agency": "WSA LAUENBURG",
    "WaterFk": "DE3724FD-80A8-46F9-8B5B-DB378A84048C"
  },
  {
    "Id": "414DD4EE-B38B-489F-A1FE-19B1D62F3202",
    "Created": "2019-12-10T09:02:42Z",
    "Updated": null,
    "Latitude": 52.85006819187145,
    "Longitude": 13.936478050751903,
    "Number": "692080",
    "Shortname": "NIEDERFINOW SHW OP",
    "Longname": "NIEDERFINOW SHW OP",
    "Km": 77.428,
    "Agency": "WSA EBERSWALDE",
    "WaterFk": "FB9B6F64-A7A6-4744-A12F-5BDF31E6F0AF"
  },
  {
    "Id": "4ED5F6DA-B7A0-4431-AB1F-1A26E69A21BC",
    "Created": "2019-12-10T09:02:42Z",
    "Updated": null,
    "Latitude": 52.478820809218284,
    "Longitude": 10.909579440422446,
    "Number": "31010093",
    "Shortname": "RUEHEN",
    "Longname": "RUEHEN",
    "Km": 256.13,
    "Agency": "WSA UELZEN",
    "WaterFk": "09A03B1F-9ECE-4086-94D8-462F98985851"
  },
  {
    "Id": "7398029B-C6A1-484F-B1F6-1AFE568EE1E2",
    "Created": "2019-12-10T09:02:42Z",
    "Updated": null,
    "Latitude": 53.67914967442031,
    "Longitude": 9.494796126117517,
    "Number": "5945997",
    "Shortname": "GRAUERORT REEDE",
    "Longname": "GRAUERORT REEDE",
    "Km": 660.738,
    "Agency": "WSA HAMBURG",
    "WaterFk": "DE3724FD-80A8-46F9-8B5B-DB378A84048C"
  },
  {
    "Id": "23636A08-775B-4101-A1AF-1B57FB466D81",
    "Created": "2019-12-10T09:02:42Z",
    "Updated": null,
    "Latitude": 53.05125394001951,
    "Longitude": 13.293599159940442,
    "Number": "581400",
    "Shortname": "MARIENTHAL UP",
    "Longname": "MARIENTHAL UP",
    "Km": 0.085,
    "Agency": "WSA EBERSWALDE",
    "WaterFk": "D30E6E98-5A25-40AF-A625-BE880EF69A9B"
  },
  {
    "Id": "8EFFC15D-8583-4AC6-9F42-1B63C47F92B0",
    "Created": "2019-12-10T09:02:42Z",
    "Updated": null,
    "Latitude": 54.4966302285817,
    "Longitude": 11.238874338140052,
    "Number": "9610075",
    "Shortname": "MARIENLEUCHTE",
    "Longname": "MARIENLEUCHTE",
    "Km": 284.7,
    "Agency": "WSA LÜBECK",
    "WaterFk": "0C5ECB8F-5C72-4E55-82C5-CFF6A068F5A4"
  },
  {
    "Id": "FA886080-4271-4684-9999-1B6862A20AC1",
    "Created": "2019-12-10T09:02:42Z",
    "Updated": null,
    "Latitude": 52.123730574492,
    "Longitude": 9.306543742480654,
    "Number": "45700207",
    "Shortname": "HAMELN WEHRBERGEN",
    "Longname": "HAMELN WEHRBERGEN",
    "Km": 139.68,
    "Agency": "WSA HANNOVERSCH MÜNDEN",
    "WaterFk": "F965ECF6-2057-479D-A571-3F4E30C1E493"
  },
  {
    "Id": "D4F5F719-8C52-4F8D-945D-1C31404CC628",
    "Created": "2019-12-10T09:02:42Z",
    "Updated": null,
    "Latitude": 53.88780676587327,
    "Longitude": 9.148744899065209,
    "Number": "5970094",
    "Shortname": "BRUNSBÜTTEL MPM",
    "Longname": "BRUNSBÜTTEL MPM",
    "Km": 695.214,
    "Agency": "WSA CUXHAVEN",
    "WaterFk": "DE3724FD-80A8-46F9-8B5B-DB378A84048C"
  },
  {
    "Id": "C8AF067C-BA6A-4A76-86D8-1CE8E532EF8B",
    "Created": "2019-12-10T09:02:42Z",
    "Updated": null,
    "Latitude": 53.493516863381444,
    "Longitude": 6.8412044381103785,
    "Number": "9340010",
    "Shortname": "EMSHÖRN",
    "Longname": "EMSHÖRN",
    "Km": 74.32,
    "Agency": "WSA EMDEN",
    "WaterFk": "ED0E2086-7425-4D2D-B372-D9B219D5638B"
  },
  {
    "Id": "B475386C-30CC-453A-B3B7-1D17ACE13595",
    "Created": "2019-12-10T09:02:42Z",
    "Updated": null,
    "Latitude": 52.62270549447987,
    "Longitude": 10.062164093638698,
    "Number": "48300105",
    "Shortname": "CELLE",
    "Longname": "CELLE",
    "Km": 111.55,
    "Agency": "WSA VERDEN",
    "WaterFk": "FFA035BD-4C18-4A12-9BC7-5E66FC29E149"
  },
  {
    "Id": "4AE7098C-116D-42C4-8044-1DB0AF0F57EE",
    "Created": "2019-12-10T09:02:42Z",
    "Updated": null,
    "Latitude": 52.856046983415965,
    "Longitude": 13.658664303876654,
    "Number": "31480002",
    "Shortname": "D7",
    "Longname": "D7",
    "Km": 58.22,
    "Agency": "WSA EBERSWALDE",
    "WaterFk": "FB9B6F64-A7A6-4744-A12F-5BDF31E6F0AF"
  },
  {
    "Id": "46644438-83D6-4DA8-A2A1-1DEB2CB67561",
    "Created": "2019-12-10T09:02:42Z",
    "Updated": null,
    "Latitude": 53.624400353882585,
    "Longitude": 10.67482297794653,
    "Number": "9660050",
    "Shortname": "MÖLLN",
    "Longname": "MÖLLN",
    "Km": 26.75,
    "Agency": "WSA LAUENBURG",
    "WaterFk": "7EEF13F6-E9BE-4CA4-8F03-30C4AA75E493"
  },
  {
    "Id": "BCDFA310-D887-49BF-A562-1E439759044A",
    "Created": "2019-12-10T09:02:42Z",
    "Updated": null,
    "Latitude": 53.17745900577479,
    "Longitude": 13.230639317223481,
    "Number": "581110",
    "Shortname": "HIMMELPFORT OP",
    "Longname": "HIMMELPFORT OP",
    "Km": 0.304,
    "Agency": "WSA EBERSWALDE",
    "WaterFk": "40C51E0C-D21C-492A-BBAB-E9AF3ACC0187"
  },
  {
    "Id": "632A133B-FCC2-467F-8F9C-1EC63144F8D6",
    "Created": "2019-12-10T09:02:42Z",
    "Updated": null,
    "Latitude": 51.58260697255818,
    "Longitude": 11.795328187012027,
    "Number": "570830",
    "Shortname": "WETTIN OP",
    "Longname": "WETTIN OP",
    "Km": 70.47,
    "Agency": "WSA MAGDEBURG",
    "WaterFk": "B61E88E8-9C3E-4FFA-8265-3C1053DF076E"
  },
  {
    "Id": "DDB249C5-360B-4C4F-A7F6-1F6822D236C8",
    "Created": "2019-12-10T09:02:42Z",
    "Updated": null,
    "Latitude": 52.81757399701223,
    "Longitude": 12.097664449046205,
    "Number": "580795",
    "Shortname": "TRUEBENGRABEN POLDER",
    "Longname": "TRUEBENGRABEN POLDER",
    "Km": 141.0,
    "Agency": "WSA BRANDENBURG",
    "WaterFk": "F68A87EB-4812-4075-A29C-82831687C30F"
  },
  {
    "Id": "516FBF8C-DC08-4808-B39B-1FA65A462180",
    "Created": "2019-12-10T09:02:42Z",
    "Updated": null,
    "Latitude": 52.84003259518914,
    "Longitude": 13.902174069639482,
    "Number": "693210",
    "Shortname": "STECHER OP",
    "Longname": "STECHER OP",
    "Km": 84.4,
    "Agency": "WSA EBERSWALDE",
    "WaterFk": "637CBED8-F8A3-41A4-A649-CFED2613C6CB"
  },
  {
    "Id": "A3328262-207D-4E65-96D8-202368CA0CB8",
    "Created": "2019-12-10T09:02:42Z",
    "Updated": null,
    "Latitude": 53.92875181683916,
    "Longitude": 13.342282249314371,
    "Number": "9660005",
    "Shortname": "JARMEN",
    "Longname": "JARMEN",
    "Km": 61.686,
    "Agency": "WSA STRALSUND",
    "WaterFk": "FB88F5B1-2248-45CA-BD47-1A2213B82FD3"
  },
  {
    "Id": "16A780AA-475D-41DC-A8EC-20488415B6D7",
    "Created": "2019-12-10T09:02:42Z",
    "Updated": null,
    "Latitude": 52.892870089815965,
    "Longitude": 13.381167849265402,
    "Number": "581520",
    "Shortname": "BISCHOFSWERDER OP",
    "Longname": "BISCHOFSWERDER OP",
    "Km": 4.53,
    "Agency": "WSA EBERSWALDE",
    "WaterFk": "89658AF6-0DF5-42BF-B550-5923FADC6F33"
  },
  {
    "Id": "EC4A598D-773D-44C1-935E-2053B54E45A3",
    "Created": "2019-12-10T09:02:42Z",
    "Updated": null,
    "Latitude": 53.10819077388404,
    "Longitude": 7.365594761853153,
    "Number": "3790010",
    "Shortname": "PAPENBURG",
    "Longname": "PAPENBURG",
    "Km": 0.39,
    "Agency": "WSA EMDEN",
    "WaterFk": "ED0E2086-7425-4D2D-B372-D9B219D5638B"
  },
  {
    "Id": "003200AB-D138-49D9-AA52-217817941F85",
    "Created": "2019-12-10T09:02:42Z",
    "Updated": null,
    "Latitude": 50.680935109710866,
    "Longitude": 10.928789935384831,
    "Number": "166640",
    "Shortname": "ILMENAU",
    "Longname": "ILMENAU",
    "Km": 12.0,
    "Agency": "REGIONALSTELLE SUHL",
    "WaterFk": "90398D4A-B576-431D-AD9A-3A632A333DAA"
  },
  {
    "Id": "05CA0E33-5C71-4368-B824-2243FCFF656C",
    "Created": "2019-12-10T09:02:42Z",
    "Updated": null,
    "Latitude": 51.54815974307825,
    "Longitude": 7.165993854149794,
    "Number": "27700193",
    "Shortname": "WANNE EICKEL SCHLEUSE OW",
    "Longname": "WANNE EICKEL SCHLEUSE OW",
    "Km": 31.47,
    "Agency": "WSA DUISBURG-MEIDERICH",
    "WaterFk": "30081C46-BBE9-4AC7-894C-4852476D66E5"
  },
  {
    "Id": "B3492C68-8373-4769-9B29-22F66635A478",
    "Created": "2019-12-10T09:02:42Z",
    "Updated": null,
    "Latitude": 53.376168564842324,
    "Longitude": 10.48920565856956,
    "Number": "5930050",
    "Shortname": "ARTLENBURG",
    "Longname": "ARTLENBURG",
    "Km": 573.8,
    "Agency": "WSA LAUENBURG",
    "WaterFk": "DE3724FD-80A8-46F9-8B5B-DB378A84048C"
  },
  {
    "Id": "0E065A22-9A0B-4F1D-B813-22FE6321BB1A",
    "Created": "2019-12-10T09:02:42Z",
    "Updated": null,
    "Latitude": 49.760944890765714,
    "Longitude": 9.518303910797995,
    "Number": "24709089",
    "Shortname": "WERTHEIM",
    "Longname": "WERTHEIM",
    "Km": 156.96,
    "Agency": "WSA ASCHAFFENBURG",
    "WaterFk": "2F14FF08-2C57-4DA3-9C69-2978EFD4AC6E"
  },
  {
    "Id": "7BBD90AD-98E9-4415-8040-23500F2E01E7",
    "Created": "2019-12-10T09:02:42Z",
    "Updated": null,
    "Latitude": 53.418392744462764,
    "Longitude": 11.601601292780472,
    "Number": "596250",
    "Shortname": "LEWITZ OP",
    "Longname": "LEWITZ OP",
    "Km": 50.66,
    "Agency": "WSA LAUENBURG",
    "WaterFk": "E54E5839-5FC8-4494-9360-8989442A2242"
  },
  {
    "Id": "005DFDAE-EFCC-410A-BF1C-24096E0C2866",
    "Created": "2019-12-10T09:02:42Z",
    "Updated": null,
    "Latitude": 52.18974744357511,
    "Longitude": 9.081704939644029,
    "Number": "45900109",
    "Shortname": "RINTELN",
    "Longname": "RINTELN",
    "Km": 163.24,
    "Agency": "WSA MINDEN",
    "WaterFk": "F965ECF6-2057-479D-A571-3F4E30C1E493"
  },
  {
    "Id": "42805EB1-ACA9-4F32-A373-24A9CF839AED",
    "Created": "2019-12-10T09:02:42Z",
    "Updated": null,
    "Latitude": 52.89113754341671,
    "Longitude": 13.639019060487044,
    "Number": "693320",
    "Shortname": "EICHHORST OP",
    "Longname": "EICHHORST OP",
    "Km": 8.7,
    "Agency": "WSA EBERSWALDE",
    "WaterFk": "F1C53A5E-5205-4F4B-8463-C9C074919477"
  },
  {
    "Id": "F973FB71-4A44-4603-8B13-25002DD6DBD8",
    "Created": "2019-12-10T09:02:42Z",
    "Updated": null,
    "Latitude": 53.84689709635665,
    "Longitude": 9.28820059301234,
    "Number": "126005",
    "Shortname": "SCHÖNEWORTH SIEL",
    "Longname": "SCHÖNEWORTH SIEL",
    "Km": 685.1,
    "Agency": "WSA HAMBURG",
    "WaterFk": "DE3724FD-80A8-46F9-8B5B-DB378A84048C"
  },
  {
    "Id": "42B865FB-5DD8-4204-A7AA-260704D69E21",
    "Created": "2019-12-10T09:02:42Z",
    "Updated": null,
    "Latitude": 52.33523660910899,
    "Longitude": 10.51713424608098,
    "Number": "31010080",
    "Shortname": "THUNE",
    "Longname": "THUNE",
    "Km": 222.85,
    "Agency": "WSA BRAUNSCHWEIG",
    "WaterFk": "09A03B1F-9ECE-4086-94D8-462F98985851"
  },
  {
    "Id": "B8997708-53D0-4932-8FBF-265083E11517",
    "Created": "2019-12-10T09:02:42Z",
    "Updated": null,
    "Latitude": 53.07479652486107,
    "Longitude": 10.603346356554992,
    "Number": "90100112",
    "Shortname": "BEVENSEN",
    "Longname": "BEVENSEN",
    "Km": 79.72,
    "Agency": "WSA UELZEN",
    "WaterFk": "F5D543C2-B584-40E4-AFA0-19435627E3FF"
  },
  {
    "Id": "46A3350B-F3E6-4F5D-A297-2652C43BFAC8",
    "Created": "2019-12-10T09:02:42Z",
    "Updated": null,
    "Latitude": 51.90627916421889,
    "Longitude": 11.788818573156826,
    "Number": "570930",
    "Shortname": "CALBE UP",
    "Longname": "CALBE UP",
    "Km": 19.67,
    "Agency": "WSA MAGDEBURG",
    "WaterFk": "B61E88E8-9C3E-4FFA-8265-3C1053DF076E"
  },
  {
    "Id": "B02CE5C0-64E9-4D24-90B9-269A28A1E9F9",
    "Created": "2019-12-10T09:02:42Z",
    "Updated": null,
    "Latitude": 53.42868635965855,
    "Longitude": 10.10108534214382,
    "Number": "5950010",
    "Shortname": "OVER",
    "Longname": "OVER",
    "Km": 605.0,
    "Agency": "WSA LAUENBURG",
    "WaterFk": "DE3724FD-80A8-46F9-8B5B-DB378A84048C"
  },
  {
    "Id": "EE52CE62-212C-4735-B438-26FBDC37E3E2",
    "Created": "2019-12-10T09:02:42Z",
    "Updated": null,
    "Latitude": 52.54369958358309,
    "Longitude": 13.32314190907983,
    "Number": "586640",
    "Shortname": "BERLIN-PLOETZENSEE OP",
    "Longname": "BERLIN-PLOETZENSEE OP",
    "Km": 7.41,
    "Agency": "WSA BERLIN",
    "WaterFk": "BE09D030-9C00-4A2D-83CF-222A469B317A"
  },
  {
    "Id": "6298A8F9-7C77-4605-A55A-278C61CC8F50",
    "Created": "2019-12-10T09:02:42Z",
    "Updated": null,
    "Latitude": 52.679836828305575,
    "Longitude": 14.43323010073256,
    "Number": "603050",
    "Shortname": "KIENITZ",
    "Longname": "KIENITZ",
    "Km": 632.923,
    "Agency": "WSA EBERSWALDE",
    "WaterFk": "6CE9C61C-AB43-4084-BD62-9AD5E2AB6CF9"
  },
  {
    "Id": "8A08C920-C911-43E5-90DD-27D4D4E757D0",
    "Created": "2019-12-10T09:02:42Z",
    "Updated": null,
    "Latitude": 53.48044959691865,
    "Longitude": 9.703368910151168,
    "Number": "5950080",
    "Shortname": "BUXTEHUDE",
    "Longname": "BUXTEHUDE",
    "Km": 0.71,
    "Agency": "WSA HAMBURG",
    "WaterFk": "1836BB37-423E-444B-BF2E-DF21FED87FB1"
  },
  {
    "Id": "63A222C0-BD45-4AF8-B9A7-27F9443A1936",
    "Created": "2019-12-10T09:02:42Z",
    "Updated": null,
    "Latitude": 52.53142330680511,
    "Longitude": 13.292223567643292,
    "Number": "582740",
    "Shortname": "BERLIN-CHARLOTTENBURG OP",
    "Longname": "BERLIN-CHARLOTTENBURG OP",
    "Km": 6.44,
    "Agency": "WSA BERLIN",
    "WaterFk": "512A905C-FBD5-4E1F-AD61-CABA44D8B0F9"
  },
  {
    "Id": "4627475D-CCDA-4D53-8F13-28527C49EAF5",
    "Created": "2019-12-10T09:02:42Z",
    "Updated": null,
    "Latitude": 50.01536471997927,
    "Longitude": 9.033733207247224,
    "Number": "24700325",
    "Shortname": "MAINFLINGEN",
    "Longname": "MAINFLINGEN",
    "Km": 76.43,
    "Agency": "WSA ASCHAFFENBURG",
    "WaterFk": "2F14FF08-2C57-4DA3-9C69-2978EFD4AC6E"
  },
  {
    "Id": "BF7BB8E8-E81F-4655-9E84-28738FEAE936",
    "Created": "2019-12-10T09:02:42Z",
    "Updated": null,
    "Latitude": 53.81755527881617,
    "Longitude": 10.625359636016615,
    "Number": "9669040",
    "Shortname": "BUESSAU UP",
    "Longname": "BUESSAU UP",
    "Km": 3.37,
    "Agency": "WSA LAUENBURG",
    "WaterFk": "7EEF13F6-E9BE-4CA4-8F03-30C4AA75E493"
  },
  {
    "Id": "ADE3A084-8680-47B5-9D2E-288CB6C5F9D5",
    "Created": "2019-12-10T09:02:42Z",
    "Updated": null,
    "Latitude": 52.27585261525862,
    "Longitude": 7.60495826627035,
    "Number": "34000010",
    "Shortname": "BERGESHÖVEDE",
    "Longname": "BERGESHÖVEDE",
    "Km": 108.26,
    "Agency": "WSA RHEINE",
    "WaterFk": "96423534-6B1A-4AF8-93D7-6F99AF296ECD"
  },
  {
    "Id": "DC344605-C507-4054-B4E3-293CF0602BC4",
    "Created": "2019-12-10T09:02:42Z",
    "Updated": null,
    "Latitude": 49.81851246888537,
    "Longitude": 6.845035832609275,
    "Number": "26700200",
    "Shortname": "Detzem UP",
    "Longname": "DETZEM UP",
    "Km": 165.4,
    "Agency": "WSA TRIER",
    "WaterFk": "AAE1F1D4-F79F-4C3A-83D5-DEBFFD711981"
  },
  {
    "Id": "5BB1F56D-7C56-4B01-9DA0-2A08A0AAEDEB",
    "Created": "2019-12-10T09:02:42Z",
    "Updated": null,
    "Latitude": 52.767405265072625,
    "Longitude": 13.280309399537114,
    "Number": "581590",
    "Shortname": "LEHNITZ UP",
    "Longname": "LEHNITZ UP",
    "Km": 28.43,
    "Agency": "WSA EBERSWALDE",
    "WaterFk": "FB9B6F64-A7A6-4744-A12F-5BDF31E6F0AF"
  },
  {
    "Id": "CA3F535B-4A32-4DD7-A56B-2AC20DEA4472",
    "Created": "2019-12-10T09:02:42Z",
    "Updated": null,
    "Latitude": 52.07053518750326,
    "Longitude": 14.752950062772658,
    "Number": "603140",
    "Shortname": "RATZDORF",
    "Longname": "RATZDORF",
    "Km": 542.55,
    "Agency": "WSA EBERSWALDE",
    "WaterFk": "6CE9C61C-AB43-4084-BD62-9AD5E2AB6CF9"
  },
  {
    "Id": "69FB4730-4866-4838-9B18-2C0EE9DCE80D",
    "Created": "2019-12-10T09:02:42Z",
    "Updated": null,
    "Latitude": 53.52283645455303,
    "Longitude": 11.521818558105737,
    "Number": "596930",
    "Shortname": "BANZKOW UP",
    "Longname": "BANZKOW UP",
    "Km": 10.85,
    "Agency": "WSA LAUENBURG",
    "WaterFk": "10415159-E774-4431-8DE1-5CE83324718F"
  },
  {
    "Id": "06B978DD-8C4D-48AC-A0C8-2C16681ED281",
    "Created": "2019-12-10T09:02:42Z",
    "Updated": null,
    "Latitude": 47.711058939467094,
    "Longitude": 7.52927487471016,
    "Number": "23300130",
    "Shortname": "Rheinweiler",
    "Longname": "RHEINWEILER",
    "Km": 186.178,
    "Agency": "WSA FREIBURG",
    "WaterFk": "A88EA916-5E6C-4D83-83A9-1D4FDFEF25EC"
  },
  {
    "Id": "5553E209-1B44-47F5-917D-2C6951ECC044",
    "Created": "2019-12-10T09:02:42Z",
    "Updated": null,
    "Latitude": 52.667154560583455,
    "Longitude": 12.259671114013504,
    "Number": "580700",
    "Shortname": "GRÜTZ OP",
    "Longname": "GRÜTZ OP",
    "Km": 116.772,
    "Agency": "WSA BRANDENBURG",
    "WaterFk": "F68A87EB-4812-4075-A29C-82831687C30F"
  },
  {
    "Id": "89038B42-8181-48DF-A0CD-2CA3913F2D68",
    "Created": "2019-12-10T09:02:42Z",
    "Updated": null,
    "Latitude": 50.391515243680544,
    "Longitude": 8.065216839246112,
    "Number": "25800440",
    "Shortname": "LIMBURG SCHLEUSE UP",
    "Longname": "LIMBURG SCHLEUSE UP",
    "Km": 76.611,
    "Agency": "WSA KOBLENZ",
    "WaterFk": "FD74AE1F-78C3-4EFA-8449-6ECC1FB482AB"
  },
  {
    "Id": "AE1B91D0-E746-4F65-9F64-2D2E23603A82",
    "Created": "2019-12-10T09:02:42Z",
    "Updated": null,
    "Latitude": 53.461413851966704,
    "Longitude": 10.064007910377194,
    "Number": "5952020",
    "Shortname": "BUNTHAUS",
    "Longname": "BUNTHAUS",
    "Km": 609.88,
    "Agency": "HAMBURG PORT AUTHORITY",
    "WaterFk": "DE3724FD-80A8-46F9-8B5B-DB378A84048C"
  },
  {
    "Id": "B6BBE4F8-AA59-414A-8292-2D3919590A20",
    "Created": "2019-12-10T09:02:42Z",
    "Updated": null,
    "Latitude": 52.84929577160606,
    "Longitude": 13.856280456933005,
    "Number": "693190",
    "Shortname": "RAGOESE OP",
    "Longname": "RAGOESE OP",
    "Km": 81.0,
    "Agency": "WSA EBERSWALDE",
    "WaterFk": "637CBED8-F8A3-41A4-A649-CFED2613C6CB"
  },
  {
    "Id": "D0EC2790-A870-405E-BB61-2DCC3CF47467",
    "Created": "2019-12-10T09:02:42Z",
    "Updated": null,
    "Latitude": 54.356825078445006,
    "Longitude": 9.883252534676965,
    "Number": "5970067",
    "Shortname": "NOK KÖNIGSFÖRDE",
    "Longname": "NOK KÖNIGSFÖRDE",
    "Km": 79.63,
    "Agency": "WSA KIEL-HOLTENAU",
    "WaterFk": "E5C5D288-6A87-42EC-81C1-D58F1A6FCF1B"
  },
  {
    "Id": "15859426-834C-429E-9C41-2E097B717B1D",
    "Created": "2019-12-10T09:02:42Z",
    "Updated": null,
    "Latitude": 53.935698195873435,
    "Longitude": 9.690579345819973,
    "Number": "5970037",
    "Shortname": "GRÖNHUDE",
    "Longname": "GRÖNHUDE",
    "Km": 5.1,
    "Agency": "WSA HAMBURG",
    "WaterFk": "87724DC3-A0E4-4FE3-AF64-0C174951D58E"
  },
  {
    "Id": "9AAE4921-BDA4-4081-B67B-2E0C5AB8BC54",
    "Created": "2019-12-10T09:02:42Z",
    "Updated": null,
    "Latitude": 52.38233838182189,
    "Longitude": 8.970777603262103,
    "Number": "47300100",
    "Shortname": "PETERSHAGEN",
    "Longname": "PETERSHAGEN",
    "Km": 215.77,
    "Agency": "WSA VERDEN",
    "WaterFk": "F965ECF6-2057-479D-A571-3F4E30C1E493"
  },
  {
    "Id": "53D40547-8A09-4B25-988C-2E6D8D8D98EE",
    "Created": "2019-12-10T09:02:42Z",
    "Updated": null,
    "Latitude": 48.824932569913784,
    "Longitude": 12.962349998942592,
    "Number": "10081004",
    "Shortname": "DEGGENDORF",
    "Longname": "DEGGENDORF",
    "Km": 2284.44,
    "Agency": "WSA REGENSBURG",
    "WaterFk": "D19708CA-AC42-4AD4-8D62-E85722F946F6"
  },
  {
    "Id": "0309CD61-90C9-470E-99D4-2EE4FB2C5F84",
    "Created": "2019-12-10T09:02:42Z",
    "Updated": null,
    "Latitude": 49.9703420958729,
    "Longitude": 7.899667963397107,
    "Number": "25300200",
    "Shortname": "Bingen",
    "Longname": "BINGEN",
    "Km": 528.36,
    "Agency": "WSA BINGEN",
    "WaterFk": "A88EA916-5E6C-4D83-83A9-1D4FDFEF25EC"
  },
  {
    "Id": "D9ACDBEC-61FF-4308-978A-2F4D1C2C4059",
    "Created": "2019-12-10T09:02:42Z",
    "Updated": null,
    "Latitude": 53.82594572968708,
    "Longitude": 9.400981175517032,
    "Number": "5970041",
    "Shortname": "STÖR-SPERRWERK AP",
    "Longname": "STÖR-SPERRWERK AP",
    "Km": 678.636,
    "Agency": "WSA HAMBURG",
    "WaterFk": "DE3724FD-80A8-46F9-8B5B-DB378A84048C"
  },
  {
    "Id": "66FF3EB4-513B-478B-ABD2-2F5126EA66FD",
    "Created": "2019-12-10T09:02:42Z",
    "Updated": null,
    "Latitude": 50.105736840936274,
    "Longitude": 8.714994541411016,
    "Number": "24700404",
    "Shortname": "FRANKFURT OSTHAFEN",
    "Longname": "FRANKFURT OSTHAFEN",
    "Km": 37.591,
    "Agency": "WSA ASCHAFFENBURG",
    "WaterFk": "2F14FF08-2C57-4DA3-9C69-2978EFD4AC6E"
  },
  {
    "Id": "ACE7D4B0-33E5-46DB-A41D-2FA7A321F67A",
    "Created": "2019-12-10T09:02:42Z",
    "Updated": null,
    "Latitude": 51.83918327033327,
    "Longitude": 11.772200902082998,
    "Number": "579100",
    "Shortname": "NIENBURG (Saale)",
    "Longname": "NIENBURG (SAALE)",
    "Km": 27.9,
    "Agency": "WSA MAGDEBURG",
    "WaterFk": "B61E88E8-9C3E-4FFA-8265-3C1053DF076E"
  },
  {
    "Id": "599C23B1-4550-41E3-A7E7-3056989927F1",
    "Created": "2019-12-10T09:02:42Z",
    "Updated": null,
    "Latitude": 53.60941130435129,
    "Longitude": 9.584318424577651,
    "Number": "5970010",
    "Shortname": "HETLINGEN",
    "Longname": "HETLINGEN",
    "Km": 650.5,
    "Agency": "WSA HAMBURG",
    "WaterFk": "DE3724FD-80A8-46F9-8B5B-DB378A84048C"
  },
  {
    "Id": "A6EE8177-107B-47DD-BCFD-30960CCC6E9C",
    "Created": "2019-12-10T09:02:42Z",
    "Updated": null,
    "Latitude": 50.93694925646438,
    "Longitude": 6.963300159749653,
    "Number": "2730010",
    "Shortname": "Köln",
    "Longname": "KÖLN",
    "Km": 688.0,
    "Agency": "WSA DUISBURG-RHEIN",
    "WaterFk": "A88EA916-5E6C-4D83-83A9-1D4FDFEF25EC"
  },
  {
    "Id": "CF6AC249-F20A-400B-8543-31F2D2FE23F0",
    "Created": "2019-12-10T09:02:42Z",
    "Updated": null,
    "Latitude": 53.108846927349994,
    "Longitude": 8.173069994153126,
    "Number": "4960020",
    "Shortname": "HUNDSMÜHLEN",
    "Longname": "HUNDSMÜHLEN",
    "Km": 5.188,
    "Agency": "WSA BREMEN",
    "WaterFk": "283901D1-24A4-4E8E-94F6-3FA3DFB4720A"
  },
  {
    "Id": "9D7CC90A-7380-4DBF-8641-3201DFCBC75D",
    "Created": "2019-12-10T09:02:42Z",
    "Updated": null,
    "Latitude": 52.371176042641245,
    "Longitude": 13.711208442751907,
    "Number": "585920",
    "Shortname": "WERNSDORF OP",
    "Longname": "WERNSDORF OP",
    "Km": 47.74,
    "Agency": "WSA BERLIN",
    "WaterFk": "512A905C-FBD5-4E1F-AD61-CABA44D8B0F9"
  },
  {
    "Id": "85D686F1-55B2-4D36-8DBA-3207B50901A7",
    "Created": "2019-12-10T09:02:42Z",
    "Updated": null,
    "Latitude": 50.96458457915114,
    "Longitude": 13.929755188361455,
    "Number": "501040",
    "Shortname": "PIRNA",
    "Longname": "PIRNA",
    "Km": 34.67,
    "Agency": "WSA DRESDEN",
    "WaterFk": "DE3724FD-80A8-46F9-8B5B-DB378A84048C"
  },
  {
    "Id": "3944C1FD-39F5-47B1-BB6E-323DB05D70E8",
    "Created": "2019-12-10T09:02:42Z",
    "Updated": null,
    "Latitude": 49.41094472438031,
    "Longitude": 8.777435199450947,
    "Number": "23800745",
    "Shortname": "ZIEGELHAUSEN AMS",
    "Longname": "ZIEGELHAUSEN AMS",
    "Km": 29.4,
    "Agency": "WSA NECKAR",
    "WaterFk": "AFC18147-790A-4AF0-BFFA-A54156C6BA7C"
  },
  {
    "Id": "59219312-9E87-4B8C-8DDE-325AF733D282",
    "Created": "2019-12-10T09:02:42Z",
    "Updated": null,
    "Latitude": 51.41565074708677,
    "Longitude": 9.67808149274157,
    "Number": "41900206",
    "Shortname": "LETZTER HELLER",
    "Longname": "LETZTER HELLER",
    "Km": 2.32,
    "Agency": "WSA HANNOVERSCH MÜNDEN",
    "WaterFk": "808AF9BE-2074-40A7-96B1-17973BD59449"
  },
  {
    "Id": "550E3885-A9D1-4E55-BD25-34228BD6D988",
    "Created": "2019-12-10T09:02:42Z",
    "Updated": null,
    "Latitude": 53.03825049644637,
    "Longitude": 11.569161666053072,
    "Number": "5910010",
    "Shortname": "SCHNACKENBURG",
    "Longname": "SCHNACKENBURG",
    "Km": 474.56,
    "Agency": "WSA MAGDEBURG",
    "WaterFk": "DE3724FD-80A8-46F9-8B5B-DB378A84048C"
  },
  {
    "Id": "BF48CEFD-0D00-4186-A366-343C25F43615",
    "Created": "2019-12-10T09:02:42Z",
    "Updated": null,
    "Latitude": 52.265775062002575,
    "Longitude": 14.290377024435985,
    "Number": "585860",
    "Shortname": "NEUHAUS UP",
    "Longname": "NEUHAUS UP",
    "Km": 2.77,
    "Agency": "WSA BERLIN",
    "WaterFk": "9E207D14-F5A8-43B0-B7B0-1D4C484E5444"
  },
  {
    "Id": "5B58AF00-6817-4214-B151-34830AC563CC",
    "Created": "2019-12-10T09:02:42Z",
    "Updated": null,
    "Latitude": 51.276766660357175,
    "Longitude": 9.966470842701384,
    "Number": "41900104",
    "Shortname": "ALLENDORF",
    "Longname": "ALLENDORF",
    "Km": 40.79,
    "Agency": "WSA HANNOVERSCH MÜNDEN",
    "WaterFk": "808AF9BE-2074-40A7-96B1-17973BD59449"
  },
  {
    "Id": "E020E651-E422-46D3-AE28-34887C5A4A8E",
    "Created": "2019-12-10T09:02:42Z",
    "Updated": null,
    "Latitude": 0.0,
    "Longitude": 0.0,
    "Number": "3329",
    "Shortname": "Konstanz-Rhein",
    "Longname": "KONSTANZ-RHEIN",
    "Km": 0.475,
    "Agency": "REGIERUNGSPRÄSIDIUM FREIBURG",
    "WaterFk": "A88EA916-5E6C-4D83-83A9-1D4FDFEF25EC"
  },
  {
    "Id": "FBB1C6C1-9FA9-4315-8E31-3499BF00BFEF",
    "Created": "2019-12-10T09:02:42Z",
    "Updated": null,
    "Latitude": 52.74011859550903,
    "Longitude": 12.204582290982167,
    "Number": "588321",
    "Shortname": "WARNAU POLDER",
    "Longname": "WARNAU POLDER",
    "Km": 127.5,
    "Agency": "WSA BRANDENBURG",
    "WaterFk": "F68A87EB-4812-4075-A29C-82831687C30F"
  },
  {
    "Id": "F6DC9514-BDAF-4817-B3BF-34CD4B5C3E18",
    "Created": "2019-12-10T09:02:42Z",
    "Updated": null,
    "Latitude": 53.97311783991779,
    "Longitude": 9.275959434151838,
    "Number": "7130154610",
    "Shortname": "GW-PWDRFP 07",
    "Longname": "GW-PWDRFP 07",
    "Km": 13.86,
    "Agency": "WSA BRUNSBÜTTEL",
    "WaterFk": "C23322C5-AD2A-4050-9E64-E377341617A9"
  },
  {
    "Id": "F3C6EE73-5561-4068-96EC-364016E7D9EF",
    "Created": "2019-12-10T09:02:42Z",
    "Updated": null,
    "Latitude": 53.567910528723715,
    "Longitude": 9.702887479041944,
    "Number": "5950090",
    "Shortname": "SCHULAU",
    "Longname": "SCHULAU",
    "Km": 641.0,
    "Agency": "WSA HAMBURG",
    "WaterFk": "DE3724FD-80A8-46F9-8B5B-DB378A84048C"
  },
  {
    "Id": "71357738-C8E2-4CB7-A41A-365659BB8D58",
    "Created": "2019-12-10T09:02:42Z",
    "Updated": null,
    "Latitude": 53.12250673689759,
    "Longitude": 13.495313970633909,
    "Number": "581200",
    "Shortname": "TEMPLIN OP",
    "Longname": "TEMPLIN OP",
    "Km": 13.338,
    "Agency": "WSA EBERSWALDE",
    "WaterFk": "177835D3-9D2A-42EF-88FD-A572BA3DF9CA"
  },
  {
    "Id": "438B565E-F293-43C8-8771-377E555ED5EC",
    "Created": "2019-12-10T09:02:42Z",
    "Updated": null,
    "Latitude": 53.3271726846511,
    "Longitude": 7.03067362267113,
    "Number": "3990010",
    "Shortname": "KNOCK",
    "Longname": "KNOCK",
    "Km": 50.848,
    "Agency": "WSA EMDEN",
    "WaterFk": "ED0E2086-7425-4D2D-B372-D9B219D5638B"
  },
  {
    "Id": "7753C1FA-34D8-4D09-A7C7-38024079117C",
    "Created": "2019-12-10T09:02:42Z",
    "Updated": null,
    "Latitude": 53.43360175624244,
    "Longitude": 6.926206572590535,
    "Number": "3990020",
    "Shortname": "DUKEGAT",
    "Longname": "DUKEGAT",
    "Km": 65.69,
    "Agency": "WSA EMDEN",
    "WaterFk": "ED0E2086-7425-4D2D-B372-D9B219D5638B"
  },
  {
    "Id": "C9409937-B794-4B69-B36B-38467DAAB09A",
    "Created": "2019-12-10T09:02:42Z",
    "Updated": null,
    "Latitude": 48.91185866862933,
    "Longitude": 11.932078963881246,
    "Number": "10054500",
    "Shortname": "KELHEIMWINZER",
    "Longname": "KELHEIMWINZER",
    "Km": 2409.7,
    "Agency": "WSA REGENSBURG",
    "WaterFk": "D19708CA-AC42-4AD4-8D62-E85722F946F6"
  },
  {
    "Id": "4EF9DD9C-B32B-43FC-BC5E-3849D4AB7ECC",
    "Created": "2019-12-10T09:02:42Z",
    "Updated": null,
    "Latitude": 51.684812401946154,
    "Longitude": 7.8157886355655055,
    "Number": "27800080",
    "Shortname": "HAMM UW",
    "Longname": "HAMM UW",
    "Km": 36.59,
    "Agency": "WSA RHEINE",
    "WaterFk": "28CDF699-E727-447B-B3EE-9D10F8B2A5B2"
  },
  {
    "Id": "497C29EE-32B2-4535-AC5F-3881A106C793",
    "Created": "2019-12-10T09:02:42Z",
    "Updated": null,
    "Latitude": 53.19058707072247,
    "Longitude": 11.345035421942846,
    "Number": "596390",
    "Shortname": "MALLISS OP",
    "Longname": "MALLISS OP",
    "Km": 9.52,
    "Agency": "WSA LAUENBURG",
    "WaterFk": "E54E5839-5FC8-4494-9360-8989442A2242"
  },
  {
    "Id": "DD41A7D6-9B11-4EC4-9518-388266750CFA",
    "Created": "2019-12-10T09:02:42Z",
    "Updated": null,
    "Latitude": 52.3667148809812,
    "Longitude": 9.858777009971709,
    "Number": "31010060",
    "Shortname": "ANDERTEN UW",
    "Longname": "ANDERTEN UW",
    "Km": 173.425,
    "Agency": "WSA BRAUNSCHWEIG",
    "WaterFk": "09A03B1F-9ECE-4086-94D8-462F98985851"
  },
  {
    "Id": "9E19C411-F728-4A43-A057-39D4155C71CC",
    "Created": "2019-12-10T09:02:42Z",
    "Updated": null,
    "Latitude": 54.795056746219686,
    "Longitude": 9.433017666212919,
    "Number": "9610010",
    "Shortname": "FLENSBURG",
    "Longname": "FLENSBURG",
    "Km": 4.0,
    "Agency": "WSA LÜBECK",
    "WaterFk": "0C5ECB8F-5C72-4E55-82C5-CFF6A068F5A4"
  },
  {
    "Id": "C8B9A2B6-B783-417F-8479-3A0D732FB901",
    "Created": "2019-12-10T09:02:42Z",
    "Updated": null,
    "Latitude": 53.771713596769814,
    "Longitude": 8.092507447705561,
    "Number": "9420010",
    "Shortname": "MELLUMPLATE",
    "Longname": "MELLUMPLATE",
    "Km": 31.13,
    "Agency": "WSA WILHELMSHAVEN",
    "WaterFk": "A237B616-E51B-4C6C-8FE2-EF485B0A3879"
  },
  {
    "Id": "1125A391-6586-4951-865F-3A2C72F2C81A",
    "Created": "2019-12-10T09:02:42Z",
    "Updated": null,
    "Latitude": 52.39066742566611,
    "Longitude": 8.190182787252548,
    "Number": "31010032",
    "Shortname": "BROXTEN",
    "Longname": "BROXTEN",
    "Km": 47.43,
    "Agency": "WSA MINDEN",
    "WaterFk": "09A03B1F-9ECE-4086-94D8-462F98985851"
  },
  {
    "Id": "4C7D796A-39F2-4F26-97A9-3AAD01713E29",
    "Created": "2019-12-10T09:02:42Z",
    "Updated": null,
    "Latitude": 50.35863947564839,
    "Longitude": 7.60474054165621,
    "Number": "25900700",
    "Shortname": "Koblenz",
    "Longname": "KOBLENZ",
    "Km": 591.49,
    "Agency": "WSA BINGEN",
    "WaterFk": "A88EA916-5E6C-4D83-83A9-1D4FDFEF25EC"
  },
  {
    "Id": "2F1080BA-97A2-40B3-AF4E-3AC3D53D27DE",
    "Created": "2019-12-10T09:02:42Z",
    "Updated": null,
    "Latitude": 52.3111172305382,
    "Longitude": 9.053354087265255,
    "Number": "31010040",
    "Shortname": "WARBER GRABEN",
    "Longname": "WARBER GRABEN",
    "Km": 111.75,
    "Agency": "WSA MINDEN",
    "WaterFk": "09A03B1F-9ECE-4086-94D8-462F98985851"
  },
  {
    "Id": "26656FDA-CACF-4E92-9935-3AE6E717FE5B",
    "Created": "2019-12-10T09:02:42Z",
    "Updated": null,
    "Latitude": 53.767077715389604,
    "Longitude": 7.984916047278568,
    "Number": "9420020",
    "Shortname": "WANGEROOGE OST",
    "Longname": "WANGEROOGE OST",
    "Km": 34.999,
    "Agency": "WSA WILHELMSHAVEN",
    "WaterFk": "A237B616-E51B-4C6C-8FE2-EF485B0A3879"
  },
  {
    "Id": "A98B4A84-E51F-4D03-86D9-3B8BDAC10E69",
    "Created": "2019-12-10T09:02:42Z",
    "Updated": null,
    "Latitude": 51.62901680333525,
    "Longitude": 6.613936099614115,
    "Number": "27800234",
    "Shortname": "FRIEDRICHSFELD SCHLEUSE UW",
    "Longname": "FRIEDRICHSFELD SCHLEUSE UW",
    "Km": 1.628,
    "Agency": "WSA DUISBURG-MEIDERICH",
    "WaterFk": "1E045F5D-ABAB-4826-85EA-B9C3FCAFC271"
  },
  {
    "Id": "83BBAEDB-5D81-4BC6-9F66-3BD700C99C1F",
    "Created": "2019-12-10T09:02:42Z",
    "Updated": null,
    "Latitude": 51.553684503588414,
    "Longitude": 13.01013060185494,
    "Number": "501261",
    "Shortname": "TORGAU",
    "Longname": "TORGAU",
    "Km": 154.15,
    "Agency": "WSA DRESDEN",
    "WaterFk": "DE3724FD-80A8-46F9-8B5B-DB378A84048C"
  },
  {
    "Id": "BD317EDD-214A-4E11-A9DC-3CC71A2907C3",
    "Created": "2019-12-10T09:02:42Z",
    "Updated": null,
    "Latitude": 53.514373651127926,
    "Longitude": 12.674191725059625,
    "Number": "596030",
    "Shortname": "WAREN",
    "Longname": "WAREN",
    "Km": 151.97,
    "Agency": "WSA LAUENBURG",
    "WaterFk": "E54E5839-5FC8-4494-9360-8989442A2242"
  },
  {
    "Id": "1CE53A59-33B9-40DC-9B17-3CD2A2414607",
    "Created": "2019-12-10T09:02:42Z",
    "Updated": null,
    "Latitude": 51.876940469957034,
    "Longitude": 12.454011602418165,
    "Number": "501470",
    "Shortname": "COSWIG",
    "Longname": "COSWIG",
    "Km": 236.31,
    "Agency": "WSA DRESDEN",
    "WaterFk": "DE3724FD-80A8-46F9-8B5B-DB378A84048C"
  },
  {
    "Id": "506E6B03-1209-4650-8B3B-3CD2D4724B5F",
    "Created": "2019-12-10T09:02:42Z",
    "Updated": null,
    "Latitude": 53.456706831572134,
    "Longitude": 12.259905514045807,
    "Number": "596090",
    "Shortname": "PLAU UP",
    "Longname": "PLAU UP",
    "Km": 120.0,
    "Agency": "WSA LAUENBURG",
    "WaterFk": "E54E5839-5FC8-4494-9360-8989442A2242"
  },
  {
    "Id": "3F8CEB6D-E95D-46E6-B523-3D15FE706049",
    "Created": "2019-12-10T09:02:42Z",
    "Updated": null,
    "Latitude": 52.85095253062228,
    "Longitude": 13.396077065717305,
    "Number": "581540",
    "Shortname": "LIEBENWALDE OP",
    "Longname": "LIEBENWALDE OP",
    "Km": 45.334,
    "Agency": "WSA EBERSWALDE",
    "WaterFk": "A8ACA94C-FE23-43E0-93A7-39A6614B5D87"
  },
  {
    "Id": "BB5560FC-7995-40A2-B92F-3D828C67DCFA",
    "Created": "2019-12-10T09:02:42Z",
    "Updated": null,
    "Latitude": 49.60679094732159,
    "Longitude": 6.40445703822861,
    "Number": "26100140",
    "Shortname": "Wincheringen",
    "Longname": "WINCHERINGEN",
    "Km": 222.2,
    "Agency": "WSA TRIER",
    "WaterFk": "AAE1F1D4-F79F-4C3A-83D5-DEBFFD711981"
  },
  {
    "Id": "F44E7220-892E-40B5-8EF4-3DA129C2A6AE",
    "Created": "2019-12-10T09:02:42Z",
    "Updated": null,
    "Latitude": 53.80124315024519,
    "Longitude": 9.08045772011446,
    "Number": "126002",
    "Shortname": "GEVERSDORF BRÜCKE",
    "Longname": "GEVERSDORF BRÜCKE",
    "Km": 64.45,
    "Agency": "WSA HAMBURG",
    "WaterFk": "BAC6F0B5-34E1-4425-A1D6-05624AA72FDD"
  },
  {
    "Id": "2852B9AB-D30E-4D04-AE06-3E946F48A0B1",
    "Created": "2019-12-10T09:02:42Z",
    "Updated": null,
    "Latitude": 54.50091922540719,
    "Longitude": 8.702016358858556,
    "Number": "9550021",
    "Shortname": "PELLWORM ANLEGER",
    "Longname": "PELLWORM ANLEGER",
    "Km": 0.0,
    "Agency": "WSA TÖNNING",
    "WaterFk": "1A191392-64F3-408E-87F0-B91E10545B57"
  },
  {
    "Id": "BCCAACB3-A9A5-44AA-B05B-3F29C3C6E38A",
    "Created": "2019-12-10T09:02:42Z",
    "Updated": null,
    "Latitude": 53.44245184670891,
    "Longitude": 11.76515769172493,
    "Number": "596200",
    "Shortname": "MALCHOW WEHR OP",
    "Longname": "MALCHOW WEHR OP",
    "Km": 65.2,
    "Agency": "WSA LAUENBURG",
    "WaterFk": "E54E5839-5FC8-4494-9360-8989442A2242"
  },
  {
    "Id": "2C95F83D-4669-4553-A18D-3F493176D34D",
    "Created": "2019-12-10T09:02:42Z",
    "Updated": null,
    "Latitude": 53.18148911832933,
    "Longitude": 13.144578840522726,
    "Number": "580060",
    "Shortname": "FÜRSTENBERG OP",
    "Longname": "FÜRSTENBERG OP",
    "Km": 60.802,
    "Agency": "WSA EBERSWALDE",
    "WaterFk": "89658AF6-0DF5-42BF-B550-5923FADC6F33"
  },
  {
    "Id": "3EF81FC0-33DC-4F67-8BB8-3F66975292D5",
    "Created": "2019-12-10T09:02:42Z",
    "Updated": null,
    "Latitude": 50.00823806917759,
    "Longitude": 9.040708664679794,
    "Number": "24700323",
    "Shortname": "KLEINOSTHEIM_WUK",
    "Longname": "KLEINOSTHEIM_WUK",
    "Km": 77.8,
    "Agency": "WSA ASCHAFFENBURG",
    "WaterFk": "2F14FF08-2C57-4DA3-9C69-2978EFD4AC6E"
  },
  {
    "Id": "C0244C0E-6AE6-40CB-A967-4039B2A0CE7C",
    "Created": "2019-12-10T09:02:42Z",
    "Updated": null,
    "Latitude": 53.69649848699198,
    "Longitude": 7.157758676264964,
    "Number": "9360010",
    "Shortname": "NORDERNEY RIFFGAT",
    "Longname": "NORDERNEY RIFFGAT",
    "Km": 159.333,
    "Agency": "WSA EMDEN",
    "WaterFk": "1A191392-64F3-408E-87F0-B91E10545B57"
  },
  {
    "Id": "85FC0DAC-A53F-4638-880D-40B24BB282F3",
    "Created": "2019-12-10T09:02:42Z",
    "Updated": null,
    "Latitude": 53.89839809255912,
    "Longitude": 9.149862765792989,
    "Number": "5970091",
    "Shortname": "NOK BRUNSBÜTTEL",
    "Longname": "NOK BRUNSBÜTTEL",
    "Km": 2.116,
    "Agency": "WSA BRUNSBÜTTEL",
    "WaterFk": "E5C5D288-6A87-42EC-81C1-D58F1A6FCF1B"
  },
  {
    "Id": "A238B70F-1198-4B2F-8C03-41F3503E5389",
    "Created": "2019-12-10T09:02:42Z",
    "Updated": null,
    "Latitude": 53.292471122708534,
    "Longitude": 10.400999061267543,
    "Number": "5940030",
    "Shortname": "BARDOWICK UP",
    "Longname": "BARDOWICK UP",
    "Km": 5.78,
    "Agency": "WSA LAUENBURG",
    "WaterFk": "0F4CEB73-146D-474E-8232-3CABBCCC27E7"
  },
  {
    "Id": "4DBCE62D-A015-4011-AFCD-423BB8D4B7A1",
    "Created": "2019-12-10T09:02:42Z",
    "Updated": null,
    "Latitude": 51.69378170588779,
    "Longitude": 7.842759417458165,
    "Number": "27800060",
    "Shortname": "HAMM OW",
    "Longname": "HAMM OW",
    "Km": 38.72,
    "Agency": "WSA RHEINE",
    "WaterFk": "28CDF699-E727-447B-B3EE-9D10F8B2A5B2"
  },
  {
    "Id": "136FEBF6-1371-4118-A9B8-4275444BDA5D",
    "Created": "2019-12-10T09:02:42Z",
    "Updated": null,
    "Latitude": 53.75218229281383,
    "Longitude": 9.653894435890026,
    "Number": "5970022",
    "Shortname": "ELMSHORN HAFEN",
    "Longname": "ELMSHORN HAFEN",
    "Km": 0.028,
    "Agency": "WSA HAMBURG",
    "WaterFk": "2E1A8E9D-983F-445B-8F31-270510396D90"
  },
  {
    "Id": "503AD891-C9DE-428C-B682-434510ED9DE8",
    "Created": "2019-12-10T09:02:42Z",
    "Updated": null,
    "Latitude": 52.5114022960738,
    "Longitude": 13.336518600769521,
    "Number": "586620",
    "Shortname": "BERLIN-UNTERSCHLEUSE OP",
    "Longname": "BERLIN-UNTERSCHLEUSE OP",
    "Km": 1.71,
    "Agency": "WSA BERLIN",
    "WaterFk": "D7818E64-186B-435F-A871-CDB9F75D4459"
  },
  {
    "Id": "E574D0AF-5C63-4306-B1D3-43B7359DE06D",
    "Created": "2019-12-10T09:02:42Z",
    "Updated": null,
    "Latitude": 53.9555085283345,
    "Longitude": 8.658229962288056,
    "Number": "9510010",
    "Shortname": "ZEHNERLOCH",
    "Longname": "ZEHNERLOCH",
    "Km": 732.2,
    "Agency": "WSA CUXHAVEN",
    "WaterFk": "1A191392-64F3-408E-87F0-B91E10545B57"
  },
  {
    "Id": "70272185-B2B3-4178-96B8-43BEA330DCAE",
    "Created": "2019-12-10T09:02:42Z",
    "Updated": null,
    "Latitude": 51.05445972641962,
    "Longitude": 13.738831783620387,
    "Number": "501060",
    "Shortname": "DRESDEN",
    "Longname": "DRESDEN",
    "Km": 55.63,
    "Agency": "WSA DRESDEN",
    "WaterFk": "DE3724FD-80A8-46F9-8B5B-DB378A84048C"
  },
  {
    "Id": "1EBD0F94-CC06-445C-8E73-43FE2B8C72DC",
    "Created": "2019-12-10T09:02:42Z",
    "Updated": null,
    "Latitude": 52.50076040293713,
    "Longitude": 12.415237248227585,
    "Number": "580630",
    "Shortname": "BAHNITZ UP",
    "Longname": "BAHNITZ UP",
    "Km": 82.11,
    "Agency": "WSA BRANDENBURG",
    "WaterFk": "F68A87EB-4812-4075-A29C-82831687C30F"
  },
  {
    "Id": "6B53EF42-5BD9-4366-ACE3-442E307BEC60",
    "Created": "2019-12-10T09:02:42Z",
    "Updated": null,
    "Latitude": 54.097711316905006,
    "Longitude": 13.457152923470629,
    "Number": "9650073",
    "Shortname": "GREIFSWALD-WIECK",
    "Longname": "GREIFSWALD-WIECK",
    "Km": 1.0,
    "Agency": "WSA STRALSUND",
    "WaterFk": "0C5ECB8F-5C72-4E55-82C5-CFF6A068F5A4"
  },
  {
    "Id": "C2AA9164-1073-4271-82EF-44344FBE456E",
    "Created": "2019-12-10T09:02:42Z",
    "Updated": null,
    "Latitude": 52.334960638513955,
    "Longitude": 8.617140963904099,
    "Number": "31010031",
    "Shortname": "LUEBBECKE",
    "Longname": "LUEBBECKE",
    "Km": 80.092,
    "Agency": "WSA MINDEN",
    "WaterFk": "09A03B1F-9ECE-4086-94D8-462F98985851"
  },
  {
    "Id": "AA6AF4E6-A44F-46C4-ABF6-449F8A68BAB1",
    "Created": "2019-12-10T09:02:42Z",
    "Updated": null,
    "Latitude": 53.161187968385896,
    "Longitude": 7.371913437651044,
    "Number": "3790020",
    "Shortname": "WEENER",
    "Longname": "WEENER",
    "Km": 6.852,
    "Agency": "WSA EMDEN",
    "WaterFk": "ED0E2086-7425-4D2D-B372-D9B219D5638B"
  },
  {
    "Id": "8559D1A0-4A03-410A-8910-44A089A07DF8",
    "Created": "2019-12-10T09:02:42Z",
    "Updated": null,
    "Latitude": 49.072331408981775,
    "Longitude": 9.159786627616935,
    "Number": "23800500",
    "Shortname": "Lauffen",
    "Longname": "LAUFFEN",
    "Km": 125.43,
    "Agency": "WSA NECKAR",
    "WaterFk": "AFC18147-790A-4AF0-BFFA-A54156C6BA7C"
  },
  {
    "Id": "E6B68BC2-6814-4BBF-B37E-44A0B7807C2D",
    "Created": "2019-12-10T09:02:42Z",
    "Updated": null,
    "Latitude": 51.62111782997715,
    "Longitude": 7.32942536471659,
    "Number": "27700133",
    "Shortname": "HENRICHENBURG UW",
    "Longname": "HENRICHENBURG UW",
    "Km": 15.9,
    "Agency": "WSA DUISBURG-MEIDERICH",
    "WaterFk": "96423534-6B1A-4AF8-93D7-6F99AF296ECD"
  },
  {
    "Id": "3AD4013F-644B-47F5-A641-44B332BFECB2",
    "Created": "2019-12-10T09:02:42Z",
    "Updated": null,
    "Latitude": 54.37208664756846,
    "Longitude": 10.157049612180774,
    "Number": "9610066",
    "Shortname": "KIEL-HOLTENAU",
    "Longname": "KIEL-HOLTENAU",
    "Km": 150.0,
    "Agency": "WSA LÜBECK",
    "WaterFk": "0C5ECB8F-5C72-4E55-82C5-CFF6A068F5A4"
  },
  {
    "Id": "78029185-9DFC-4B1B-8695-45EBC2A09CF4",
    "Created": "2019-12-10T09:02:42Z",
    "Updated": null,
    "Latitude": 53.639223945927455,
    "Longitude": 8.445201625436724,
    "Number": "9460010",
    "Shortname": "ROBBENSÜDSTEERT",
    "Longname": "ROBBENSÜDSTEERT",
    "Km": 79.942,
    "Agency": "WSA BREMERHAVEN",
    "WaterFk": "F965ECF6-2057-479D-A571-3F4E30C1E493"
  },
  {
    "Id": "F768173A-7A22-40F7-90A3-4676DA7E5010",
    "Created": "2019-12-10T09:02:42Z",
    "Updated": null,
    "Latitude": 48.98045247487973,
    "Longitude": 12.383769252011401,
    "Number": "10068006",
    "Shortname": "PFATTER",
    "Longname": "PFATTER",
    "Km": 2350.69,
    "Agency": "WSA REGENSBURG",
    "WaterFk": "D19708CA-AC42-4AD4-8D62-E85722F946F6"
  },
  {
    "Id": "E0D0CC73-D3EF-41FF-A158-4692B62ED3F9",
    "Created": "2019-12-10T09:02:42Z",
    "Updated": null,
    "Latitude": 52.8744321175411,
    "Longitude": 14.150973236301567,
    "Number": "603090",
    "Shortname": "HOHENSAATEN OST AP",
    "Longname": "HOHENSAATEN OST AP",
    "Km": 92.9,
    "Agency": "WSA EBERSWALDE",
    "WaterFk": "7BD20795-FA24-4A48-AC2A-5C5C8510EA97"
  },
  {
    "Id": "C8FF06A7-EAC9-4DB7-AB22-46954D4481CB",
    "Created": "2019-12-10T09:02:42Z",
    "Updated": null,
    "Latitude": 53.79658489924948,
    "Longitude": 9.3722470258039,
    "Number": "71160798",
    "Shortname": "D4 RHINPLATTE-NORD OBERFLÄCHE",
    "Longname": "D4 RHINPLATTE-NORD OBERFLÄCHE",
    "Km": 676.5,
    "Agency": "WSA HAMBURG",
    "WaterFk": "DE3724FD-80A8-46F9-8B5B-DB378A84048C"
  },
  {
    "Id": "42ECAE60-EEB3-4B41-9721-46B3F12D04B8",
    "Created": "2019-12-10T09:02:42Z",
    "Updated": null,
    "Latitude": 50.03098323632883,
    "Longitude": 10.2218584351717,
    "Number": "24300304",
    "Shortname": "SCHWEINFURT NH",
    "Longname": "SCHWEINFURT NEUER HAFEN",
    "Km": 330.78,
    "Agency": "WSA SCHWEINFURT",
    "WaterFk": "2F14FF08-2C57-4DA3-9C69-2978EFD4AC6E"
  },
  {
    "Id": "EC8188EE-F4E4-4F5E-91AE-472E765060CD",
    "Created": "2019-12-10T09:02:42Z",
    "Updated": null,
    "Latitude": 53.14105864230038,
    "Longitude": 11.260589695259206,
    "Number": "596450",
    "Shortname": "DOEMITZ OP",
    "Longname": "DOEMITZ OP",
    "Km": 1.01,
    "Agency": "WSA LAUENBURG",
    "WaterFk": "E54E5839-5FC8-4494-9360-8989442A2242"
  },
  {
    "Id": "914CE0A4-D900-4BF9-BACE-47A6F73E7BED",
    "Created": "2019-12-10T09:02:42Z",
    "Updated": null,
    "Latitude": 52.74861165187199,
    "Longitude": 12.212688506558264,
    "Number": "580760",
    "Shortname": "GARZ UP",
    "Longname": "GARZ UP",
    "Km": 129.18,
    "Agency": "WSA BRANDENBURG",
    "WaterFk": "F68A87EB-4812-4075-A29C-82831687C30F"
  },
  {
    "Id": "DF242A51-7ED5-4205-BE60-47E0E1F46FAD",
    "Created": "2019-12-10T09:02:42Z",
    "Updated": null,
    "Latitude": 52.13216690713276,
    "Longitude": 14.652208747570233,
    "Number": "690050",
    "Shortname": "EISENHUETTENSTADT SCHL. OP",
    "Longname": "EISENHUETTENSTADT SCHL. OP",
    "Km": 127.18,
    "Agency": "WSA BERLIN",
    "WaterFk": "512A905C-FBD5-4E1F-AD61-CABA44D8B0F9"
  },
  {
    "Id": "C13FC7D0-BEB1-42A3-B831-4816D7649059",
    "Created": "2019-12-10T09:02:42Z",
    "Updated": null,
    "Latitude": 52.87735684452029,
    "Longitude": 12.008008464982804,
    "Number": "502470",
    "Shortname": "NEUWERBEN EP",
    "Longname": "NEUWERBEN EP",
    "Km": 156.21,
    "Agency": "WSA BRANDENBURG",
    "WaterFk": "F68A87EB-4812-4075-A29C-82831687C30F"
  },
  {
    "Id": "22B7DCB3-8C42-4F71-9191-49143BA3A828",
    "Created": "2019-12-10T09:02:42Z",
    "Updated": null,
    "Latitude": 54.82459898726829,
    "Longitude": 9.888008024317406,
    "Number": "9610020",
    "Shortname": "LT KALKGRUND",
    "Longname": "LT KALKGRUND",
    "Km": 61.5,
    "Agency": "WSA LÜBECK",
    "WaterFk": "0C5ECB8F-5C72-4E55-82C5-CFF6A068F5A4"
  },
  {
    "Id": "4B348B56-B08C-4522-9042-49C1EDB45D0D",
    "Created": "2019-12-10T09:02:42Z",
    "Updated": null,
    "Latitude": 54.55759356112303,
    "Longitude": 13.245134582969705,
    "Number": "9670055",
    "Shortname": "WITTOWER FÄHRE",
    "Longname": "WITTOWER FÄHRE",
    "Km": 0.0,
    "Agency": "WSA STRALSUND",
    "WaterFk": "0C5ECB8F-5C72-4E55-82C5-CFF6A068F5A4"
  },
  {
    "Id": "E7F52BD2-F0CB-4194-AA85-4AD76A3A0671",
    "Created": "2019-12-10T09:02:42Z",
    "Updated": null,
    "Latitude": 51.79584533283747,
    "Longitude": 11.733834123733041,
    "Number": "570900",
    "Shortname": "BERNBURG OP",
    "Longname": "BERNBURG OP",
    "Km": 36.2,
    "Agency": "WSA MAGDEBURG",
    "WaterFk": "B61E88E8-9C3E-4FFA-8265-3C1053DF076E"
  },
  {
    "Id": "D867E7E9-FEB9-4D36-8757-4AFD865E697B",
    "Created": "2019-12-10T09:02:42Z",
    "Updated": null,
    "Latitude": 49.95018030455771,
    "Longitude": 7.016038265799196,
    "Number": "26700600",
    "Shortname": "Zeltingen UP",
    "Longname": "ZELTINGEN UP",
    "Km": 123.4,
    "Agency": "WSA TRIER",
    "WaterFk": "AAE1F1D4-F79F-4C3A-83D5-DEBFFD711981"
  },
  {
    "Id": "C6A12D34-C78F-44A2-A7FF-4B8D88F316CC",
    "Created": "2019-12-10T09:02:42Z",
    "Updated": null,
    "Latitude": 52.39427213147182,
    "Longitude": 12.356118651827487,
    "Number": "587540",
    "Shortname": "WUSTERWITZ OP",
    "Longname": "WUSTERWITZ OP",
    "Km": 376.56,
    "Agency": "WSA BRANDENBURG",
    "WaterFk": "B35AA52D-9188-4489-8189-73F4E6B9841E"
  },
  {
    "Id": "A9299F0C-9EB8-4369-A260-4BE929E72736",
    "Created": "2019-12-10T09:02:42Z",
    "Updated": null,
    "Latitude": 52.21418947995005,
    "Longitude": 14.004329993353952,
    "Number": "586310",
    "Shortname": "WENDISCH RIETZ OP",
    "Longname": "WENDISCH RIETZ OP",
    "Km": 22.77,
    "Agency": "WSA BERLIN",
    "WaterFk": "C309F510-67EC-4D13-912D-F703231458CC"
  },
  {
    "Id": "B9975EA1-5B45-4E27-ABB8-4C3F7878B1F7",
    "Created": "2019-12-10T09:02:42Z",
    "Updated": null,
    "Latitude": 51.60310157968186,
    "Longitude": 7.306141323485447,
    "Number": "27700160",
    "Shortname": "HERNE UW",
    "Longname": "HERNE UW",
    "Km": 36.825,
    "Agency": "WSA DUISBURG-MEIDERICH",
    "WaterFk": "30081C46-BBE9-4AC7-894C-4852476D66E5"
  },
  {
    "Id": "C1D6F464-F38A-4E38-9F74-4C5D22A42C88",
    "Created": "2019-12-10T09:02:42Z",
    "Updated": null,
    "Latitude": 52.214285822086865,
    "Longitude": 14.002967143121301,
    "Number": "586320",
    "Shortname": "WENDISCH RIETZ UP",
    "Longname": "WENDISCH RIETZ UP",
    "Km": 22.71,
    "Agency": "WSA BERLIN",
    "WaterFk": "C309F510-67EC-4D13-912D-F703231458CC"
  },
  {
    "Id": "728BD3E3-23F2-41C6-8AC5-4CFA223A5A7E",
    "Created": "2019-12-10T09:02:42Z",
    "Updated": null,
    "Latitude": 52.90933657890343,
    "Longitude": 10.614719701462517,
    "Number": "90100111",
    "Shortname": "UELZEN OW",
    "Longname": "UELZEN OW",
    "Km": 60.38,
    "Agency": "WSA UELZEN",
    "WaterFk": "F5D543C2-B584-40E4-AFA0-19435627E3FF"
  },
  {
    "Id": "915D76E1-3BF9-4E37-9A9A-4D144CD771CC",
    "Created": "2019-12-10T09:02:42Z",
    "Updated": null,
    "Latitude": 49.796208970188495,
    "Longitude": 9.925968763247354,
    "Number": "24300600",
    "Shortname": "WÜRZBURG",
    "Longname": "WÜRZBURG",
    "Km": 251.97,
    "Agency": "WSA SCHWEINFURT",
    "WaterFk": "2F14FF08-2C57-4DA3-9C69-2978EFD4AC6E"
  },
  {
    "Id": "8E16BD66-C49B-406A-930E-4DCCFB330FF5",
    "Created": "2019-12-10T09:02:42Z",
    "Updated": null,
    "Latitude": 52.683400781638795,
    "Longitude": 9.604020370697823,
    "Number": "48800301",
    "Shortname": "SCHWARMSTEDT",
    "Longname": "SCHWARMSTEDT",
    "Km": 6.2,
    "Agency": "WSA VERDEN",
    "WaterFk": "821630FC-D361-458F-B69C-2115A1C10B24"
  },
  {
    "Id": "F3DC8F07-C2BB-4B92-B0B0-4E01A395A2C6",
    "Created": "2019-12-10T09:02:42Z",
    "Updated": null,
    "Latitude": 51.71699260639268,
    "Longitude": 12.82329701429728,
    "Number": "501330",
    "Shortname": "PRETZSCH-MAUKEN",
    "Longname": "PRETZSCH-MAUKEN",
    "Km": 184.45,
    "Agency": "WSA DRESDEN",
    "WaterFk": "DE3724FD-80A8-46F9-8B5B-DB378A84048C"
  },
  {
    "Id": "9427FAFC-7146-4BE1-A71E-4E4658236037",
    "Created": "2019-12-10T09:02:42Z",
    "Updated": null,
    "Latitude": 53.822764794448304,
    "Longitude": 9.03713057987013,
    "Number": "126019",
    "Shortname": "BELUM PEGEL",
    "Longname": "BELUM PEGEL",
    "Km": 69.89,
    "Agency": "WSA HAMBURG",
    "WaterFk": "BAC6F0B5-34E1-4425-A1D6-05624AA72FDD"
  },
  {
    "Id": "E476BCAD-B898-4F68-9C26-4F1A1159DFF6",
    "Created": "2019-12-10T09:02:42Z",
    "Updated": null,
    "Latitude": 48.94685787976606,
    "Longitude": 12.014757615398487,
    "Number": "10056302",
    "Shortname": "OBERNDORF",
    "Longname": "OBERNDORF",
    "Km": 2397.38,
    "Agency": "WSA REGENSBURG",
    "WaterFk": "D19708CA-AC42-4AD4-8D62-E85722F946F6"
  },
  {
    "Id": "831AD501-D2FE-4782-AB83-4F1C8E0B15FF",
    "Created": "2019-12-10T09:02:42Z",
    "Updated": null,
    "Latitude": 52.27673747300618,
    "Longitude": 11.83202697629219,
    "Number": "587507",
    "Shortname": "BURG",
    "Longname": "BURG",
    "Km": 332.54,
    "Agency": "WSA BRANDENBURG",
    "WaterFk": "B35AA52D-9188-4489-8189-73F4E6B9841E"
  },
  {
    "Id": "E8DAA3E2-77D1-4CFA-9AC9-501E7B2B4B0A",
    "Created": "2019-12-10T09:02:42Z",
    "Updated": null,
    "Latitude": 53.98442129888576,
    "Longitude": 8.315139865852299,
    "Number": "9510063",
    "Shortname": "BAKE A",
    "Longname": "BAKE A",
    "Km": 755.6,
    "Agency": "WSA CUXHAVEN",
    "WaterFk": "1A191392-64F3-408E-87F0-B91E10545B57"
  },
  {
    "Id": "36243256-7786-4E69-922F-50785D8904BF",
    "Created": "2019-12-10T09:02:42Z",
    "Updated": null,
    "Latitude": 51.363558419498645,
    "Longitude": 8.68278565714364,
    "Number": "44100013",
    "Shortname": "KOTTHAUSEN",
    "Longname": "KOTTHAUSEN",
    "Km": 3.4,
    "Agency": "WSA HANNOVERSCH MÜNDEN",
    "WaterFk": "AA74EBD7-E4B1-4EA4-83E2-989D94B90D6A"
  },
  {
    "Id": "5735892A-EC65-4B29-97C5-50939AA9584E",
    "Created": "2019-12-10T09:02:42Z",
    "Updated": null,
    "Latitude": 50.44339015190925,
    "Longitude": 7.392055788752456,
    "Number": "27100400",
    "Shortname": "Andernach",
    "Longname": "ANDERNACH",
    "Km": 613.78,
    "Agency": "WSA BINGEN",
    "WaterFk": "A88EA916-5E6C-4D83-83A9-1D4FDFEF25EC"
  },
  {
    "Id": "5A7E1D4A-53AA-4F9F-A59B-50E01B7260C7",
    "Created": "2019-12-10T09:02:42Z",
    "Updated": null,
    "Latitude": 51.65386092350868,
    "Longitude": 11.752179249840303,
    "Number": "570850",
    "Shortname": "ROTHENBURG OP",
    "Longname": "ROTHENBURG OP",
    "Km": 58.78,
    "Agency": "WSA MAGDEBURG",
    "WaterFk": "B61E88E8-9C3E-4FFA-8265-3C1053DF076E"
  },
  {
    "Id": "61394669-3F1B-44E5-AE37-50FD2512F4FA",
    "Created": "2019-12-10T09:02:42Z",
    "Updated": null,
    "Latitude": 54.33873307277425,
    "Longitude": 9.139643467419782,
    "Number": "9520040",
    "Shortname": "NORDFELD OBERWASSER",
    "Longname": "NORDFELD OBERWASSER",
    "Km": 78.19,
    "Agency": "WSA TÖNNING",
    "WaterFk": "E2B58EA1-969F-4F72-A2A6-429C7FDD8F37"
  },
  {
    "Id": "C389C9E2-A5D8-4104-A4CF-510ADE44F143",
    "Created": "2019-12-10T09:02:42Z",
    "Updated": null,
    "Latitude": 48.58204677038562,
    "Longitude": 13.503184735677362,
    "Number": "10094006",
    "Shortname": "ACHLEITEN",
    "Longname": "ACHLEITEN",
    "Km": 2223.05,
    "Agency": "VIA DONAU - ÖSTERREICHISCHE WASSERSTRASSEN-GESELLSCHAFT MBH",
    "WaterFk": "D19708CA-AC42-4AD4-8D62-E85722F946F6"
  },
  {
    "Id": "864A8111-D0C1-4B74-B94E-515F0869355E",
    "Created": "2019-12-10T09:02:42Z",
    "Updated": null,
    "Latitude": 52.37919574366444,
    "Longitude": 9.228531529696014,
    "Number": "31010044",
    "Shortname": "NIENBRUEGGE",
    "Longname": "NIENBRUEGGE",
    "Km": 126.653,
    "Agency": "WSA MINDEN",
    "WaterFk": "09A03B1F-9ECE-4086-94D8-462F98985851"
  },
  {
    "Id": "3EBA7DA6-FBD6-431C-91D3-522EC49275F0",
    "Created": "2019-12-10T09:02:42Z",
    "Updated": null,
    "Latitude": 52.91193193258229,
    "Longitude": 10.613515486381901,
    "Number": "90100113",
    "Shortname": "UELZEN",
    "Longname": "UELZEN",
    "Km": 60.68,
    "Agency": "WSA UELZEN",
    "WaterFk": "F5D543C2-B584-40E4-AFA0-19435627E3FF"
  },
  {
    "Id": "A7B1EDA9-BED4-4456-8E54-529828CDCBF9",
    "Created": "2019-12-10T09:02:42Z",
    "Updated": null,
    "Latitude": 52.25137396176887,
    "Longitude": 11.762554814182451,
    "Number": "587505",
    "Shortname": "DETERSHAGEN",
    "Longname": "DETERSHAGEN",
    "Km": 326.83,
    "Agency": "WSA BRANDENBURG",
    "WaterFk": "B35AA52D-9188-4489-8189-73F4E6B9841E"
  },
  {
    "Id": "6760B547-A7E7-408A-B3AA-529FE376BFCD",
    "Created": "2019-12-10T09:02:42Z",
    "Updated": null,
    "Latitude": 52.32454057046036,
    "Longitude": 8.342519632727996,
    "Number": "31010030",
    "Shortname": "BAD ESSEN",
    "Longname": "BAD ESSEN",
    "Km": 60.8,
    "Agency": "WSA MINDEN",
    "WaterFk": "09A03B1F-9ECE-4086-94D8-462F98985851"
  },
  {
    "Id": "0E0DBCC9-0A7D-494A-BC92-52E56A7FFFE2",
    "Created": "2019-12-10T09:02:42Z",
    "Updated": null,
    "Latitude": 52.296815768340494,
    "Longitude": 13.651757595446602,
    "Number": "586270",
    "Shortname": "NEUE MÜHLE SCHLEUSE OP",
    "Longname": "NEUE MÜHLE SCHLEUSE OP",
    "Km": 9.56,
    "Agency": "WSA BERLIN",
    "WaterFk": "BA4AC402-5733-4608-ACD0-BC1EDFD1A157"
  },
  {
    "Id": "227E53CA-4DD9-482B-BE62-52FDC62A4B4E",
    "Created": "2019-12-10T09:02:42Z",
    "Updated": null,
    "Latitude": 51.42578852661202,
    "Longitude": 9.640916558380352,
    "Number": "43100109",
    "Shortname": "HANN.MUENDEN",
    "Longname": "HANN.MUENDEN",
    "Km": 0.65,
    "Agency": "WSA HANNOVERSCH MÜNDEN",
    "WaterFk": "F965ECF6-2057-479D-A571-3F4E30C1E493"
  },
  {
    "Id": "EDFDF747-BE92-462F-87ED-53D228A33172",
    "Created": "2019-12-10T09:02:42Z",
    "Updated": null,
    "Latitude": 53.3367809193986,
    "Longitude": 7.186347889541317,
    "Number": "3970010",
    "Shortname": "EMDEN NEUE SEESCHLEUSE",
    "Longname": "EMDEN NEUE SEESCHLEUSE",
    "Km": 40.45,
    "Agency": "WSA EMDEN",
    "WaterFk": "ED0E2086-7425-4D2D-B372-D9B219D5638B"
  },
  {
    "Id": "2F56E265-CD67-4EA1-8529-549B6CCF273A",
    "Created": "2019-12-10T09:02:42Z",
    "Updated": null,
    "Latitude": 52.17639580614144,
    "Longitude": 8.862406875856845,
    "Number": "45900208",
    "Shortname": "VLOTHO",
    "Longname": "VLOTHO",
    "Km": 184.01,
    "Agency": "WSA MINDEN",
    "WaterFk": "F965ECF6-2057-479D-A571-3F4E30C1E493"
  },
  {
    "Id": "E651FE4A-D759-49C5-8E00-55137D0F2975",
    "Created": "2019-12-10T09:02:42Z",
    "Updated": null,
    "Latitude": 53.75428442700496,
    "Longitude": 9.391553456044239,
    "Number": "5970030",
    "Shortname": "KRAUTSAND",
    "Longname": "KRAUTSAND",
    "Km": 671.75,
    "Agency": "WSA HAMBURG",
    "WaterFk": "DE3724FD-80A8-46F9-8B5B-DB378A84048C"
  },
  {
    "Id": "04CBC946-8EE9-4521-AC52-557642CAD52C",
    "Created": "2019-12-10T09:02:42Z",
    "Updated": null,
    "Latitude": 0.0,
    "Longitude": 0.0,
    "Number": "0370",
    "Shortname": "TYNISTE",
    "Longname": "TYNISTE",
    "Km": -263.8,
    "Agency": "POVODÍ LABE",
    "WaterFk": "529FC755-8B44-44BE-A56F-0D751B82E76A"
  },
  {
    "Id": "EAEDD67B-723B-4800-A1AE-56341B0D9E22",
    "Created": "2019-12-10T09:02:42Z",
    "Updated": null,
    "Latitude": 52.30463965394902,
    "Longitude": 10.22969857194157,
    "Number": "31010081",
    "Shortname": "FUHSE-OST",
    "Longname": "FUHSE-OST",
    "Km": 202.27,
    "Agency": "WSA BRAUNSCHWEIG",
    "WaterFk": "09A03B1F-9ECE-4086-94D8-462F98985851"
  },
  {
    "Id": "EDFA125A-1E46-4C7E-9F3A-568AE013A4DF",
    "Created": "2019-12-10T09:02:42Z",
    "Updated": null,
    "Latitude": 52.51825035526719,
    "Longitude": 9.077734771251485,
    "Number": "47500110",
    "Shortname": "STOLZENAU",
    "Longname": "STOLZENAU",
    "Km": 243.39,
    "Agency": "WSA VERDEN",
    "WaterFk": "F965ECF6-2057-479D-A571-3F4E30C1E493"
  },
  {
    "Id": "BAFDDCBF-4108-431E-9F57-568BE08FD538",
    "Created": "2019-12-10T09:02:42Z",
    "Updated": null,
    "Latitude": 52.40306554478612,
    "Longitude": 11.979050287236685,
    "Number": "587530",
    "Shortname": "PAREY UP",
    "Longname": "PAREY UP",
    "Km": 0.85,
    "Agency": "WSA BRANDENBURG",
    "WaterFk": "1A23B4AB-DB97-4F74-BCE9-151DB100B0B0"
  },
  {
    "Id": "CCCCB57F-A2F9-4183-AE88-5710D3AFAEFD",
    "Created": "2019-12-10T09:02:42Z",
    "Updated": null,
    "Latitude": 52.129697761951476,
    "Longitude": 11.644334378196518,
    "Number": "502180",
    "Shortname": "MAGDEBURG-STROMBRÜCKE",
    "Longname": "MAGDEBURG-STROMBRÜCKE",
    "Km": 326.67,
    "Agency": "WSA MAGDEBURG",
    "WaterFk": "DE3724FD-80A8-46F9-8B5B-DB378A84048C"
  },
  {
    "Id": "7F01FBD8-653C-40BA-8ED0-57386A9B4557",
    "Created": "2019-12-10T09:02:42Z",
    "Updated": null,
    "Latitude": 54.22321945463886,
    "Longitude": 9.43567567190707,
    "Number": "9520030",
    "Shortname": "LEXFÄHRE UNTERWASSER",
    "Longname": "LEXFÄHRE UNTERWASSER",
    "Km": 26.09,
    "Agency": "WSA TÖNNING",
    "WaterFk": "E2B58EA1-969F-4F72-A2A6-429C7FDD8F37"
  },
  {
    "Id": "D18033CD-9CF6-4800-9176-57758BB444DC",
    "Created": "2019-12-10T09:02:42Z",
    "Updated": null,
    "Latitude": 53.293428170710264,
    "Longitude": 10.488563061269604,
    "Number": "90100120",
    "Shortname": "LUENEBURG UW",
    "Longname": "LUENEBURG UW",
    "Km": 106.31,
    "Agency": "WSA UELZEN",
    "WaterFk": "F5D543C2-B584-40E4-AFA0-19435627E3FF"
  },
  {
    "Id": "E5B8E9F3-F0CC-4AD7-8707-577EE1B25B3E",
    "Created": "2019-12-10T09:02:42Z",
    "Updated": null,
    "Latitude": 53.826148252925,
    "Longitude": 9.401400447906958,
    "Number": "5970040",
    "Shortname": "STÖR-SPERRWERK BP",
    "Longname": "STÖR-SPERRWERK BP",
    "Km": 50.2,
    "Agency": "WSA HAMBURG",
    "WaterFk": "87724DC3-A0E4-4FE3-AF64-0C174951D58E"
  },
  {
    "Id": "616DD98E-816D-4E17-B8CD-57B163DBC8A2",
    "Created": "2019-12-10T09:02:42Z",
    "Updated": null,
    "Latitude": 48.67663176781114,
    "Longitude": 13.115160271464772,
    "Number": "10088003",
    "Shortname": "HOFKIRCHEN",
    "Longname": "HOFKIRCHEN",
    "Km": 2256.86,
    "Agency": "WSA REGENSBURG",
    "WaterFk": "D19708CA-AC42-4AD4-8D62-E85722F946F6"
  },
  {
    "Id": "E28BABAA-7801-49A2-9C28-58701549CE5D",
    "Created": "2019-12-10T09:02:42Z",
    "Updated": null,
    "Latitude": 53.03557614439063,
    "Longitude": 14.3116290097497,
    "Number": "603130",
    "Shortname": "SCHWEDT-ODERBRÜCKE",
    "Longname": "SCHWEDT-ODERBRÜCKE",
    "Km": 690.606,
    "Agency": "WSA EBERSWALDE",
    "WaterFk": "6CE9C61C-AB43-4084-BD62-9AD5E2AB6CF9"
  },
  {
    "Id": "D3F822A0-E201-4A61-8913-589C74818AE0",
    "Created": "2019-12-10T09:02:42Z",
    "Updated": null,
    "Latitude": 53.54495606650457,
    "Longitude": 8.568175032948227,
    "Number": "4990010",
    "Shortname": "BHV ALTER LEUCHTTURM",
    "Longname": "BHV ALTER LEUCHTTURM",
    "Km": 66.638,
    "Agency": "WSA BREMERHAVEN",
    "WaterFk": "F965ECF6-2057-479D-A571-3F4E30C1E493"
  },
  {
    "Id": "1D26E504-7F9E-480A-B52C-5932BE6549AB",
    "Created": "2019-12-10T09:02:42Z",
    "Updated": null,
    "Latitude": 50.08543844622119,
    "Longitude": 7.764961728401985,
    "Number": "25700100",
    "Shortname": "Kaub",
    "Longname": "KAUB",
    "Km": 546.3,
    "Agency": "WSA BINGEN",
    "WaterFk": "A88EA916-5E6C-4D83-83A9-1D4FDFEF25EC"
  },
  {
    "Id": "C1F06401-9488-4A27-B932-59CCE52C5819",
    "Created": "2019-12-10T09:02:42Z",
    "Updated": null,
    "Latitude": 52.31324459320368,
    "Longitude": 9.058269750285689,
    "Number": "31010043",
    "Shortname": "RUSBEND",
    "Longname": "RUSBEND",
    "Km": 112.16,
    "Agency": "WSA MINDEN",
    "WaterFk": "09A03B1F-9ECE-4086-94D8-462F98985851"
  },
  {
    "Id": "F33C3CC9-DC4B-4B77-BAA9-5A5F10704398",
    "Created": "2019-12-10T09:02:42Z",
    "Updated": null,
    "Latitude": 51.646142709344545,
    "Longitude": 6.606820258595952,
    "Number": "2770040",
    "Shortname": "Wesel",
    "Longname": "WESEL",
    "Km": 814.0,
    "Agency": "WSA DUISBURG-RHEIN",
    "WaterFk": "A88EA916-5E6C-4D83-83A9-1D4FDFEF25EC"
  },
  {
    "Id": "133F0F6C-2CA1-4798-9360-5B5F417DD839",
    "Created": "2019-12-10T09:02:42Z",
    "Updated": null,
    "Latitude": 52.313845363822594,
    "Longitude": 11.768833909111391,
    "Number": "502250",
    "Shortname": "ROGÄTZ",
    "Longname": "ROGÄTZ",
    "Km": 350.64,
    "Agency": "WSA MAGDEBURG",
    "WaterFk": "DE3724FD-80A8-46F9-8B5B-DB378A84048C"
  },
  {
    "Id": "CCA92E6D-E2C3-4C5F-BE56-5B8682B353EB",
    "Created": "2019-12-10T09:02:42Z",
    "Updated": null,
    "Latitude": 53.20470884821241,
    "Longitude": 8.510192905492154,
    "Number": "4950020",
    "Shortname": "FARGE",
    "Longname": "FARGE",
    "Km": 26.261,
    "Agency": "WSA BREMEN",
    "WaterFk": "F965ECF6-2057-479D-A571-3F4E30C1E493"
  },
  {
    "Id": "5DB8AB4B-315B-466E-B9D5-5BA5A19F5F08",
    "Created": "2019-12-10T09:02:42Z",
    "Updated": null,
    "Latitude": 51.66300127041309,
    "Longitude": 6.998495058397992,
    "Number": "27800187",
    "Shortname": "DORSTEN SCHLEUSE UW",
    "Longname": "DORSTEN SCHLEUSE UW",
    "Km": 30.016,
    "Agency": "WSA DUISBURG-MEIDERICH",
    "WaterFk": "1E045F5D-ABAB-4826-85EA-B9C3FCAFC271"
  },
  {
    "Id": "DC407F1E-E25F-4995-9FEB-5BACC8658149",
    "Created": "2019-12-10T09:02:42Z",
    "Updated": null,
    "Latitude": 50.424277186208855,
    "Longitude": 7.457452746188491,
    "Number": "27100370",
    "Shortname": "Neuwied Stadt",
    "Longname": "NEUWIED STADT",
    "Km": 608.04,
    "Agency": "DEICHINFORMATIONSZENTRUM NEUWIED",
    "WaterFk": "A88EA916-5E6C-4D83-83A9-1D4FDFEF25EC"
  },
  {
    "Id": "0D0082CF-0B4B-4C8B-8E97-5D37B511916B",
    "Created": "2019-12-10T09:02:42Z",
    "Updated": null,
    "Latitude": 52.91452727407878,
    "Longitude": 10.61231113033207,
    "Number": "90100110",
    "Shortname": "UELZEN UW",
    "Longname": "UELZEN UW",
    "Km": 60.98,
    "Agency": "WSA UELZEN",
    "WaterFk": "F5D543C2-B584-40E4-AFA0-19435627E3FF"
  },
  {
    "Id": "680D5966-273F-4254-AABE-5D4E00E12A24",
    "Created": "2019-12-10T09:02:42Z",
    "Updated": null,
    "Latitude": 53.646381163634075,
    "Longitude": 11.427451938837342,
    "Number": "596900",
    "Shortname": "SCHWERIN WERDERBRÜCKE",
    "Longname": "SCHWERIN WERDERBRÜCKE",
    "Km": 27.61,
    "Agency": "WSA LAUENBURG",
    "WaterFk": "10415159-E774-4431-8DE1-5CE83324718F"
  },
  {
    "Id": "8D1FDC5B-B63A-4745-BAEB-5E266D247E99",
    "Created": "2019-12-10T09:02:42Z",
    "Updated": null,
    "Latitude": 51.91641172581023,
    "Longitude": 11.812213724371462,
    "Number": "570940",
    "Shortname": "CALBE GRIZEHNE",
    "Longname": "CALBE GRIZEHNE",
    "Km": 17.43,
    "Agency": "WSA MAGDEBURG",
    "WaterFk": "B61E88E8-9C3E-4FFA-8265-3C1053DF076E"
  },
  {
    "Id": "736437D7-0F6F-41B7-BC69-5ED721DA4F85",
    "Created": "2019-12-10T09:02:42Z",
    "Updated": null,
    "Latitude": 54.49958875723429,
    "Longitude": 10.273267865043422,
    "Number": "9610050",
    "Shortname": "LT KIEL",
    "Longname": "LT KIEL",
    "Km": 177.75,
    "Agency": "WSA LÜBECK",
    "WaterFk": "0C5ECB8F-5C72-4E55-82C5-CFF6A068F5A4"
  },
  {
    "Id": "45634232-36AC-416C-806D-5F64201DAE2C",
    "Created": "2019-12-10T09:02:42Z",
    "Updated": null,
    "Latitude": 53.67203570705899,
    "Longitude": 10.636875854439548,
    "Number": "9660049",
    "Shortname": "DONNERSCHLEUSE OP",
    "Longname": "DONNERSCHLEUSE OP",
    "Km": 20.598,
    "Agency": "WSA LAUENBURG",
    "WaterFk": "7EEF13F6-E9BE-4CA4-8F03-30C4AA75E493"
  },
  {
    "Id": "48780245-36F2-453E-B430-5FA838851D6D",
    "Created": "2019-12-10T09:02:42Z",
    "Updated": null,
    "Latitude": 51.452370230354894,
    "Longitude": 6.779116363296888,
    "Number": "27700273",
    "Shortname": "DUISBURG-MEIDERICH SCHLEUSE UW",
    "Longname": "DUISBURG-MEIDERICH SCHLEUSE UW",
    "Km": 1.1,
    "Agency": "WSA DUISBURG-MEIDERICH",
    "WaterFk": "30081C46-BBE9-4AC7-894C-4852476D66E5"
  },
  {
    "Id": "9DFB4B0B-DAA6-4A90-9A82-60734D3D2F04",
    "Created": "2019-12-10T09:02:42Z",
    "Updated": null,
    "Latitude": 52.421070769420005,
    "Longitude": 10.661979362056854,
    "Number": "31010094",
    "Shortname": "SUELFELD",
    "Longname": "SUELFELD",
    "Km": 236.8,
    "Agency": "WSA UELZEN",
    "WaterFk": "09A03B1F-9ECE-4086-94D8-462F98985851"
  },
  {
    "Id": "8AF24D6A-EECD-434E-9F1A-60AB6BC05490",
    "Created": "2019-12-10T09:02:42Z",
    "Updated": null,
    "Latitude": 54.365693099387045,
    "Longitude": 10.13886996753095,
    "Number": "5979020",
    "Shortname": "NOK KIEL BINNEN",
    "Longname": "NOK KIEL BINNEN",
    "Km": 97.76,
    "Agency": "WSA KIEL-HOLTENAU",
    "WaterFk": "E5C5D288-6A87-42EC-81C1-D58F1A6FCF1B"
  },
  {
    "Id": "D6DC44D1-63AC-4871-B175-60AC4040069A",
    "Created": "2019-12-10T09:02:42Z",
    "Updated": null,
    "Latitude": 50.27050106630473,
    "Longitude": 7.645667430975122,
    "Number": "25700600",
    "Shortname": "Braubach",
    "Longname": "BRAUBACH",
    "Km": 579.98,
    "Agency": "WSA BINGEN",
    "WaterFk": "A88EA916-5E6C-4D83-83A9-1D4FDFEF25EC"
  },
  {
    "Id": "ADBD3144-1774-45E8-8EB7-60F01A712426",
    "Created": "2019-12-10T09:02:42Z",
    "Updated": null,
    "Latitude": 52.77644829795338,
    "Longitude": 13.242904058049188,
    "Number": "580240",
    "Shortname": "SACHSENHAUSEN OP",
    "Longname": "SACHSENHAUSEN OP",
    "Km": 29.818,
    "Agency": "WSA EBERSWALDE",
    "WaterFk": "AABC9E69-6DAE-4F35-9250-8427EAEDF15C"
  },
  {
    "Id": "B327E35C-5DAD-4B79-9CEF-60FBD504EB37",
    "Created": "2019-12-10T09:02:42Z",
    "Updated": null,
    "Latitude": 54.04173732927731,
    "Longitude": 13.770379520779166,
    "Number": "9650080",
    "Shortname": "WOLGAST",
    "Longname": "WOLGAST",
    "Km": 0.0,
    "Agency": "WSA STRALSUND",
    "WaterFk": "0C5ECB8F-5C72-4E55-82C5-CFF6A068F5A4"
  },
  {
    "Id": "90BCB315-F080-41A8-A0AC-6122331BB4CF",
    "Created": "2019-12-10T09:02:42Z",
    "Updated": null,
    "Latitude": 52.02453372628083,
    "Longitude": 11.738801713181422,
    "Number": "502130",
    "Shortname": "SCHÖNEBECK",
    "Longname": "SCHÖNEBECK",
    "Km": 311.76,
    "Agency": "WSA MAGDEBURG",
    "WaterFk": "DE3724FD-80A8-46F9-8B5B-DB378A84048C"
  },
  {
    "Id": "C263EA53-CA4D-41F5-B3F5-6178FEC302AA",
    "Created": "2019-12-10T09:02:42Z",
    "Updated": null,
    "Latitude": 49.47257532014283,
    "Longitude": 6.369034818740495,
    "Number": "26100100",
    "Shortname": "Perl",
    "Longname": "PERL",
    "Km": 241.8,
    "Agency": "WSA TRIER",
    "WaterFk": "AAE1F1D4-F79F-4C3A-83D5-DEBFFD711981"
  },
  {
    "Id": "A1341B43-9C62-4E71-87CC-61A0D4D1B105",
    "Created": "2019-12-10T09:02:42Z",
    "Updated": null,
    "Latitude": 53.96794404784011,
    "Longitude": 9.275973783528286,
    "Number": "5130154610",
    "Shortname": "GW-PWDRFP 05",
    "Longname": "GW-PWDRFP 05",
    "Km": 13.41,
    "Agency": "WSA BRUNSBÜTTEL",
    "WaterFk": "C23322C5-AD2A-4050-9E64-E377341617A9"
  },
  {
    "Id": "1ED983C3-114C-4FCC-A1DB-61D336CF045F",
    "Created": "2019-12-10T09:02:42Z",
    "Updated": null,
    "Latitude": 50.011050343502575,
    "Longitude": 9.602081047495362,
    "Number": "24500100",
    "Shortname": "STEINBACH",
    "Longname": "STEINBACH",
    "Km": 200.52,
    "Agency": "WSA SCHWEINFURT",
    "WaterFk": "2F14FF08-2C57-4DA3-9C69-2978EFD4AC6E"
  },
  {
    "Id": "F8806FA4-CC2C-46E8-9B87-6231DA0E3DDD",
    "Created": "2019-12-10T09:02:42Z",
    "Updated": null,
    "Latitude": 52.4236624710917,
    "Longitude": 12.568842775816783,
    "Number": "580450",
    "Shortname": "BRANDENBURG UP",
    "Longname": "BRANDENBURG UP",
    "Km": 56.0,
    "Agency": "WSA BRANDENBURG",
    "WaterFk": "F68A87EB-4812-4075-A29C-82831687C30F"
  },